{
  "version": 0.6,
  "generator": "Overpass API 0.7.62.8 e802775f",
  "osm3s": {
    "timestamp_osm_base": "2025-08-29T09:37:50Z",
    "timestamp_areas_base": "2025-08-29T07:13:02Z",
    "copyright": "The data included in this document is from www.openstreetmap.org. The data is made available under ODbL."
  },
  "elements": [
    {
      "type": "node",
      "id": 66586326,
      "lat": 43.8862958,
      "lon": 8.0267106,
      "tags": {
        "capital": "6",
        "gfoss_id": "1152",
        "name": "Imperia",
        "name:el": "Ιμπέρια",
        "name:en": "Imperia",
        "name:mk": "Империја",
        "name:oc": "Impèria",
        "name:ru": "Империя",
        "name:zh": "因佩里亞",
        "place": "town",
        "population": "42369",
        "population:date": "2023-12-31",
        "source": "http://demo.istat.it/bilmens2016gen/index.html",
        "source:name:oc": "ieo-bdtopoc",
        "source:population": "https://demo.istat.it/app/?l=it&a=2023&i=D7B",
        "website": "https://www.comune.imperia.it",
        "wikidata": "Q13318"
      }
    },
    {
      "type": "node",
      "id": 66586343,
      "lat": 44.3268563,
      "lon": 9.3717252,
      "tags": {
        "gfoss_id": "1275",
        "name": "Cogorno",
        "place": "village",
        "population": "665"
      }
    },
    {
      "type": "node",
      "id": 66586346,
      "lat": 44.58255,
      "lon": 9.221364,
      "tags": {
        "gfoss_id": "1279",
        "name": "Fascia",
        "place": "hamlet",
        "population": "15",
        "source": "geodati.gfoss.it"
      }
    },
    {
      "type": "node",
      "id": 66586352,
      "lat": 44.4478019,
      "lon": 9.087661,
      "tags": {
        "gfoss_id": "1260",
        "name": "Bargagli",
        "place": "village",
        "population": "2624",
        "source": "geodati.gfoss.it",
        "wikidata": "Q266272",
        "wikipedia": "it:Bargagli"
      }
    },
    {
      "type": "node",
      "id": 66586358,
      "lat": 44.573483,
      "lon": 8.9433002,
      "tags": {
        "gfoss_id": "1263",
        "name": "Busalla",
        "name:ru": "Бузалла",
        "place": "village",
        "population": "5978",
        "postal_code": "16012",
        "source": "geodati.gfoss.it",
        "wikidata": "Q265551"
      }
    },
    {
      "type": "node",
      "id": 66586362,
      "lat": 44.2735459,
      "lon": 9.4497709,
      "tags": {
        "gfoss_id": "1268",
        "name": "Casarza Ligure",
        "place": "village",
        "population": "5915",
        "source": "geodati.gfoss.it",
        "wikidata": "Q267157"
      }
    },
    {
      "type": "node",
      "id": 66586368,
      "lat": 44.3164494,
      "lon": 9.3233382,
      "tags": {
        "gfoss_id": "1272",
        "name": "Chiavari",
        "place": "town",
        "population": "27398",
        "source": "geodati.gfoss.it",
        "wikidata": "Q266941"
      }
    },
    {
      "type": "node",
      "id": 66586375,
      "lat": 44.5797477,
      "lon": 9.0239649,
      "tags": {
        "gfoss_id": "1277",
        "name": "Crocefieschi",
        "place": "village",
        "population": "564",
        "source": "geodati.gfoss.it"
      }
    },
    {
      "type": "node",
      "id": 66586377,
      "lat": 44.4669525,
      "lon": 9.0909582,
      "tags": {
        "gfoss_id": "1278",
        "name": "Davagna",
        "place": "village",
        "population": "1783",
        "source": "geodati.gfoss.it",
        "wikidata": "Q266283"
      }
    },
    {
      "type": "node",
      "id": 66586379,
      "lat": 44.4529968,
      "lon": 9.2595603,
      "tags": {
        "gfoss_id": "1280",
        "name": "Favale di Malvaro",
        "place": "village",
        "population": "480",
        "source": "geodati.gfoss.it",
        "wikidata": "Q267241",
        "wikipedia": "it:Favale di Malvaro"
      }
    },
    {
      "type": "node",
      "id": 66586386,
      "lat": 44.54605,
      "lon": 9.304466,
      "tags": {
        "gfoss_id": "1281",
        "name": "Fontanigorda",
        "place": "village",
        "population": "337",
        "source": "geodati.gfoss.it",
        "wikidata": "Q266326"
      }
    },
    {
      "type": "node",
      "id": 66586391,
      "lat": 44.409239,
      "lon": 9.2676415,
      "tags": {
        "gfoss_id": "1299",
        "name": "Orero",
        "place": "hamlet",
        "population": "94"
      }
    },
    {
      "type": "node",
      "id": 66586400,
      "lat": 44.3557273,
      "lon": 9.3909566,
      "tags": {
        "gfoss_id": "1297",
        "name": "Campo di Ne",
        "place": "hamlet"
      }
    },
    {
      "type": "node",
      "id": 66586407,
      "lat": 44.3121536,
      "lon": 9.3417059,
      "tags": {
        "gfoss_id": "1285",
        "name": "Lavagna",
        "name:ru": "Лаванья",
        "place": "town",
        "population": "12791",
        "source": "geodati.gfoss.it"
      }
    },
    {
      "type": "node",
      "id": 66586413,
      "lat": 44.6456444,
      "lon": 8.9575577,
      "tags": {
        "gfoss_id": "1284",
        "name": "Isola del Cantone",
        "place": "village",
        "population": "1490",
        "source": "geodati.gfoss.it",
        "wikidata": "Q265605"
      }
    },
    {
      "type": "node",
      "id": 66586420,
      "lat": 44.2385001,
      "lon": 9.4899769,
      "tags": {
        "gfoss_id": "1294",
        "name": "Moneglia",
        "place": "village",
        "population": "2753",
        "source": "geodati.gfoss.it",
        "wikidata": "Q267005"
      }
    },
    {
      "type": "node",
      "id": 66586429,
      "lat": 44.5182616,
      "lon": 8.9124179,
      "tags": {
        "alt_name": "Vetreria",
        "name": "Vetrerie",
        "place": "village",
        "population": "1603"
      }
    },
    {
      "type": "node",
      "id": 66586438,
      "lat": 44.4546639,
      "lon": 9.1905114,
      "tags": {
        "gfoss_id": "1298",
        "name": "Neirone",
        "place": "village",
        "population": "939",
        "source": "geodati.gfoss.it",
        "wikidata": "Q267294"
      }
    },
    {
      "type": "node",
      "id": 66586449,
      "lat": 44.5154356,
      "lon": 9.0442742,
      "tags": {
        "gfoss_id": "1296",
        "name": "Montoggio",
        "name:uk": "Монтоджо",
        "place": "village",
        "population": "1988",
        "source": "geodati.gfoss.it",
        "wikidata": "Q265616",
        "wikipedia": "it:Montoggio"
      }
    },
    {
      "type": "node",
      "id": 66586456,
      "lat": 44.5655702,
      "lon": 9.1859403,
      "tags": {
        "gfoss_id": "1302",
        "name": "Propata",
        "place": "village",
        "population": "142",
        "source": "geodati.gfoss.it",
        "wikidata": "Q266366"
      }
    },
    {
      "type": "node",
      "id": 66586463,
      "lat": 44.3762485,
      "lon": 9.0861613,
      "tags": {
        "gfoss_id": "1300",
        "name": "Pieve Ligure",
        "name:lij": "Ceive",
        "place": "village",
        "population": "2459",
        "source": "geodati.gfoss.it",
        "wikidata": "Q266620"
      }
    },
    {
      "type": "node",
      "id": 66586470,
      "lat": 44.563245,
      "lon": 9.218071,
      "tags": {
        "gfoss_id": "1307",
        "name": "Rondanina",
        "place": "village",
        "population": "62",
        "source": "geodati.gfoss.it",
        "wikidata": "Q266381"
      }
    },
    {
      "type": "node",
      "id": 66586484,
      "lat": 44.5259967,
      "lon": 9.387267,
      "tags": {
        "gfoss_id": "1305",
        "name": "Rezzoaglio",
        "place": "village",
        "population": "1248",
        "source": "geodati.gfoss.it",
        "wikidata": "Q267022"
      }
    },
    {
      "type": "node",
      "id": 66586497,
      "lat": 44.5472974,
      "lon": 9.4502082,
      "tags": {
        "gfoss_id": "1313",
        "name": "Santo Stefano d'Aveto",
        "place": "village",
        "population": "1257",
        "source": "geodati.gfoss.it",
        "wikidata": "Q267032"
      }
    },
    {
      "type": "node",
      "id": 66586505,
      "lat": 44.5767478,
      "lon": 9.2791616,
      "tags": {
        "gfoss_id": "1309",
        "name": "Rovegno",
        "place": "village",
        "population": "558",
        "source": "geodati.gfoss.it",
        "wikidata": "Q266441",
        "wikipedia": "it:Rovegno"
      }
    },
    {
      "type": "node",
      "id": 66586512,
      "lat": 44.3733735,
      "lon": 9.1044467,
      "tags": {
        "gfoss_id": "1317",
        "name": "Sori",
        "name:lij": "Söi",
        "place": "village",
        "population": "4263",
        "source": "geodati.gfoss.it",
        "wikidata": "Q266630"
      }
    },
    {
      "type": "node",
      "id": 66586516,
      "lat": 44.2714526,
      "lon": 9.3958627,
      "tags": {
        "gfoss_id": "1316",
        "name": "Sestri Levante",
        "name:ru": "Сестри-Леванте",
        "place": "town",
        "population": "18578",
        "source": "geodati.gfoss.it",
        "wikidata": "Q194081"
      }
    },
    {
      "type": "node",
      "id": 66586522,
      "lat": 44.4133432,
      "lon": 9.1625628,
      "tags": {
        "gfoss_id": "1321",
        "name": "Uscio",
        "place": "village",
        "population": "2198",
        "source": "geodati.gfoss.it",
        "wikidata": "Q266666"
      }
    },
    {
      "type": "node",
      "id": 66586526,
      "lat": 44.5193954,
      "lon": 9.1583522,
      "tags": {
        "gfoss_id": "1319",
        "name": "Torriglia",
        "place": "village",
        "population": "2216",
        "source": "geodati.gfoss.it",
        "wikidata": "Q266450"
      }
    },
    {
      "type": "node",
      "id": 66586530,
      "lat": 44.3824724,
      "lon": 9.3756036,
      "tags": {
        "name": "Prati di Mezzanego",
        "place": "village",
        "population": "540"
      }
    },
    {
      "type": "node",
      "id": 66586541,
      "lat": 44.3367625,
      "lon": 9.2669559,
      "tags": {
        "gfoss_id": "1324",
        "name": "Zoagli",
        "place": "village",
        "population": "2421",
        "source": "geodati.gfoss.it",
        "wikidata": "Q218027"
      }
    },
    {
      "type": "node",
      "id": 66586546,
      "lat": 44.3544648,
      "lon": 9.3151786,
      "tags": {
        "gfoss_id": "1286",
        "name": "Leivi",
        "old_name": "San Rufino",
        "place": "village",
        "population": "2442"
      }
    },
    {
      "type": "node",
      "id": 66586556,
      "lat": 44.2740903,
      "lon": 9.5146752,
      "tags": {
        "gfoss_id": "1270",
        "name": "Castiglione Chiavarese",
        "place": "village",
        "population": "1485",
        "source": "geodati.gfoss.it",
        "wikidata": "Q267168"
      }
    },
    {
      "type": "node",
      "id": 66586566,
      "lat": 44.4337215,
      "lon": 9.1420185,
      "tags": {
        "name": "Lumarzo",
        "place": "village",
        "population": "422"
      }
    },
    {
      "type": "node",
      "id": 66586570,
      "lat": 44.5245575,
      "lon": 8.6192573,
      "tags": {
        "gfoss_id": "1318",
        "name": "Tiglieto",
        "place": "village",
        "population": "546",
        "wikidata": "Q266259"
      }
    },
    {
      "type": "node",
      "id": 66586587,
      "lat": 44.5092506,
      "lon": 8.9372544,
      "tags": {
        "name": "Pedemonte",
        "place": "village",
        "population": "5824"
      }
    },
    {
      "type": "node",
      "id": 66586589,
      "lat": 44.4025183,
      "lon": 8.6831317,
      "tags": {
        "gfoss_id": "1258",
        "name": "Arenzano",
        "name:ru": "Аренцано",
        "place": "town",
        "population": "11519",
        "source": "geodati.gfoss.it",
        "wikidata": "Q265257"
      }
    },
    {
      "type": "node",
      "id": 66586593,
      "lat": 44.422248,
      "lon": 9.38657,
      "tags": {
        "gfoss_id": "1262",
        "name": "Borzonasca",
        "place": "village",
        "population": "2025",
        "source": "geodati.gfoss.it",
        "wikidata": "Q267134"
      }
    },
    {
      "type": "node",
      "id": 66586606,
      "lat": 44.3497559,
      "lon": 9.3456502,
      "tags": {
        "gfoss_id": "1267",
        "name": "Carasco",
        "place": "village",
        "population": "3274",
        "source": "geodati.gfoss.it",
        "wikidata": "Q267183"
      }
    },
    {
      "type": "node",
      "id": 66586611,
      "lat": 44.507337,
      "lon": 8.8901102,
      "tags": {
        "gfoss_id": "1266",
        "name": "Campomorone",
        "name:ru": "Кампомороне",
        "place": "village",
        "population": "7514",
        "source": "geodati.gfoss.it",
        "wikidata": "Q265483"
      }
    },
    {
      "type": "node",
      "id": 66586616,
      "lat": 44.537644,
      "lon": 8.698153,
      "tags": {
        "gfoss_id": "1265",
        "name": "Campo Ligure",
        "name:ru": "Кампо-Лигуре",
        "place": "village",
        "population": "3170",
        "source": "geodati.gfoss.it",
        "wikidata": "Q265298"
      }
    },
    {
      "type": "node",
      "id": 66586618,
      "lat": 44.349247,
      "lon": 9.158863,
      "tags": {
        "gfoss_id": "1264",
        "name": "Camogli",
        "name:lij": "Camoggi",
        "place": "village",
        "population": "5516",
        "source": "geodati.gfoss.it"
      }
    },
    {
      "type": "node",
      "id": 66586621,
      "lat": 44.6048462,
      "lon": 9.2912637,
      "tags": {
        "gfoss_id": "1283",
        "name": "Gorreto",
        "place": "village",
        "population": "97",
        "source": "geodati.gfoss.it",
        "wikidata": "Q266338"
      }
    },
    {
      "type": "node",
      "id": 66586624,
      "lat": 44.3893419,
      "lon": 8.6428599,
      "tags": {
        "gfoss_id": "1274",
        "name": "Cogoleto",
        "name:ru": "Коголето",
        "place": "village",
        "population": "9172",
        "source": "geodati.gfoss.it",
        "wikidata": "Q265271"
      }
    },
    {
      "type": "node",
      "id": 66586628,
      "lat": 44.4093233,
      "lon": 9.2355333,
      "tags": {
        "gfoss_id": "1273",
        "name": "Cicagna",
        "place": "village",
        "population": "2483",
        "source": "geodati.gfoss.it",
        "wikidata": "Q267199",
        "wikipedia": "it:Cicagna"
      }
    },
    {
      "type": "node",
      "id": 66586630,
      "lat": 44.5355862,
      "lon": 8.9967857,
      "tags": {
        "gfoss_id": "1269",
        "name": "Casella",
        "place": "village",
        "population": "3060",
        "source": "geodati.gfoss.it",
        "wikidata": "Q265574"
      }
    },
    {
      "type": "node",
      "id": 66586634,
      "lat": 44.5257423,
      "lon": 9.2475673,
      "tags": {
        "gfoss_id": "1295",
        "name": "Montebruno",
        "place": "village",
        "population": "277",
        "source": "geodati.gfoss.it",
        "wikidata": "Q266352"
      }
    },
    {
      "type": "node",
      "id": 66586635,
      "lat": 44.4475498,
      "lon": 8.7477687,
      "tags": {
        "gfoss_id": "1290",
        "name": "Mele",
        "place": "village",
        "population": "2634",
        "source": "geodati.gfoss.it",
        "wikidata": "Q265284"
      }
    },
    {
      "type": "node",
      "id": 66586637,
      "lat": 44.5013362,
      "lon": 8.7163481,
      "tags": {
        "gfoss_id": "1289",
        "name": "Masone",
        "name:ru": "Мазоне",
        "place": "village",
        "population": "4080",
        "source": "geodati.gfoss.it"
      }
    },
    {
      "type": "node",
      "id": 66586638,
      "lat": 44.5639606,
      "lon": 8.6685132,
      "tags": {
        "gfoss_id": "1308",
        "name": "Rossiglione",
        "name:ru": "Россильоне",
        "place": "village",
        "population": "3077",
        "source": "geodati.gfoss.it",
        "wikidata": "Q265325"
      }
    },
    {
      "type": "node",
      "id": 66586640,
      "lat": 44.6132988,
      "lon": 8.9523681,
      "tags": {
        "gfoss_id": "1306",
        "name": "Ronco Scrivia",
        "name:ru": "Ронко-Скривия",
        "place": "village",
        "population": "4485",
        "source": "geodati.gfoss.it"
      }
    },
    {
      "type": "node",
      "id": 66586643,
      "lat": 44.3652396,
      "lon": 9.1462995,
      "tags": {
        "gfoss_id": "1304",
        "name": "Recco",
        "place": "town",
        "population": "9604",
        "source": "geodati.gfoss.it"
      }
    },
    {
      "type": "node",
      "id": 66586646,
      "lat": 44.3511473,
      "lon": 9.229671,
      "tags": {
        "gfoss_id": "1303",
        "name": "Rapallo",
        "place": "town",
        "population": "29796",
        "source": "geodati.gfoss.it",
        "wikidata": "Q210098"
      }
    },
    {
      "type": "node",
      "id": 66586650,
      "lat": 44.432611,
      "lon": 9.2748556,
      "tags": {
        "gfoss_id": "1287",
        "name": "Lorsica",
        "place": "hamlet",
        "population": "145"
      }
    },
    {
      "type": "node",
      "id": 66586652,
      "lat": 44.3790556,
      "lon": 9.0679508,
      "tags": {
        "gfoss_id": "1261",
        "name": "Bogliasco",
        "place": "village",
        "population": "4613",
        "source": "geodati.gfoss.it",
        "wikidata": "Q266592"
      }
    },
    {
      "type": "node",
      "id": 66586656,
      "lat": 43.871038,
      "lon": 7.5541812,
      "tags": {
        "gfoss_id": "1122",
        "name": "Airole",
        "place": "village",
        "population": "456",
        "source": "geodati.gfoss.it",
        "wikidata": "Q264583",
        "wikimedia_commons": "Category:Airole",
        "wikipedia": "it:Airole"
      }
    },
    {
      "type": "node",
      "id": 66586658,
      "lat": 43.8804326,
      "lon": 7.6602391,
      "tags": {
        "gfoss_id": "1123",
        "loc_name:lij": "Bligal",
        "name": "Apricale",
        "name:lij": "Avrigâ",
        "place": "village",
        "population": "578",
        "source": "geodati.gfoss.it",
        "wikidata": "Q268067",
        "wikipedia": "it:Apricale"
      }
    },
    {
      "type": "node",
      "id": 66586660,
      "lat": 44.3339761,
      "lon": 9.2111267,
      "tags": {
        "gfoss_id": "1311",
        "name": "Santa Margherita Ligure",
        "place": "village",
        "population": "9338",
        "source": "geodati.gfoss.it",
        "wikidata": "Q266975"
      }
    },
    {
      "type": "node",
      "id": 66586664,
      "lat": 44.5641434,
      "lon": 8.9895956,
      "tags": {
        "gfoss_id": "1314",
        "name": "Savignone",
        "place": "village",
        "population": "3127",
        "source": "geodati.gfoss.it",
        "wikidata": "Q265708"
      }
    },
    {
      "type": "node",
      "id": 66586666,
      "lat": 44.6012449,
      "lon": 9.0386677,
      "tags": {
        "gfoss_id": "1323",
        "name": "Vobbia",
        "place": "village",
        "population": "497",
        "source": "geodati.gfoss.it",
        "wikidata": "Q266145"
      }
    },
    {
      "type": "node",
      "id": 66586668,
      "lat": 44.3873059,
      "lon": 9.2583042,
      "tags": {
        "gfoss_id": "1276",
        "name": "Coreglia Ligure",
        "place": "hamlet",
        "population": "102"
      }
    },
    {
      "type": "node",
      "id": 66586670,
      "lat": 43.993025,
      "lon": 7.958047,
      "tags": {
        "gfoss_id": "1133",
        "name": "Caravonica",
        "place": "village",
        "population": "309",
        "source": "geodati.gfoss.it",
        "wikidata": "Q268279",
        "wikipedia": "it:Caravonica"
      }
    },
    {
      "type": "node",
      "id": 66586673,
      "lat": 43.865221,
      "lon": 7.868748,
      "tags": {
        "gfoss_id": "1135",
        "name": "Castellaro",
        "place": "village",
        "population": "1044",
        "source": "geodati.gfoss.it",
        "wikidata": "Q260657",
        "wikipedia": "it:Castellaro (Italia)"
      }
    },
    {
      "type": "node",
      "id": 66586675,
      "lat": 44.0072964,
      "lon": 7.9735359,
      "tags": {
        "gfoss_id": "1139",
        "name": "Cesio",
        "place": "village",
        "population": "241",
        "source": "geodati.gfoss.it",
        "wikidata": "Q268429",
        "wikipedia": "it:Cesio (Italia)"
      }
    },
    {
      "type": "node",
      "id": 66586678,
      "lat": 43.9724065,
      "lon": 7.9910739,
      "tags": {
        "gfoss_id": "1140",
        "name": "Chiusanico",
        "place": "village",
        "population": "612",
        "source": "geodati.gfoss.it",
        "wikidata": "Q268525",
        "wikipedia": "it:Chiusanico"
      }
    },
    {
      "type": "node",
      "id": 66586680,
      "lat": 44.085927,
      "lon": 8.005247,
      "tags": {
        "gfoss_id": "1124",
        "name": "Aquila d'Arroscia",
        "place": "village",
        "population": "211",
        "source": "geodati.gfoss.it"
      }
    },
    {
      "type": "node",
      "id": 66586683,
      "lat": 43.9826457,
      "lon": 7.9221224,
      "tags": {
        "gfoss_id": "1126",
        "name": "Aurigo",
        "place": "village",
        "population": "346",
        "source": "geodati.gfoss.it",
        "wikidata": "Q268137",
        "wikipedia": "it:Aurigo"
      }
    },
    {
      "type": "node",
      "id": 66586688,
      "lat": 43.8151011,
      "lon": 7.6284178,
      "tags": {
        "gfoss_id": "1132",
        "name": "Camporosso",
        "name:ru": "Кампороссо",
        "place": "village",
        "population": "5427",
        "source": "www.camporosso.it",
        "wikidata": "Q268268",
        "wikipedia": "it:Camporosso"
      }
    },
    {
      "type": "node",
      "id": 66586689,
      "lat": 43.8788708,
      "lon": 7.6400263,
      "tags": {
        "name": "Isolabona",
        "place": "village",
        "population": "643",
        "wikidata": "Q269038",
        "wikipedia": "it:Isolabona"
      }
    },
    {
      "type": "node",
      "id": 66586692,
      "lat": 43.8509263,
      "lon": 7.6236357,
      "tags": {
        "gfoss_id": "1150",
        "name": "Dolceacqua",
        "place": "village",
        "population": "1901",
        "source": "geodati.gfoss.it",
        "wikidata": "Q268995",
        "wikimedia_commons": "Category:Views of Dolceacqua",
        "wikipedia": "it:Dolceacqua"
      }
    },
    {
      "type": "node",
      "id": 66586696,
      "lat": 43.9277174,
      "lon": 7.8444438,
      "tags": {
        "gfoss_id": "1157",
        "name": "Montalto Ligure",
        "place": "village",
        "population": "250",
        "source": "geodati.gfoss.it",
        "wikidata": "Q269411",
        "wikipedia": "it:Montalto Ligure"
      }
    },
    {
      "type": "node",
      "id": 66586701,
      "lat": 44.0763792,
      "lon": 7.8056411,
      "tags": {
        "gfoss_id": "1155",
        "name": "Mendatica",
        "place": "village",
        "population": "245",
        "source": "geodati.gfoss.it",
        "wikidata": "Q269219",
        "wikipedia": "it:Mendatica"
      }
    },
    {
      "type": "node",
      "id": 66586705,
      "lat": 44.0771225,
      "lon": 7.8330076,
      "tags": {
        "gfoss_id": "1144",
        "name": "Cosio di Arroscia",
        "place": "village",
        "population": "280",
        "source": "geodati.gfoss.it"
      }
    },
    {
      "type": "node",
      "id": 66586707,
      "lat": 43.8510162,
      "lon": 7.9309503,
      "tags": {
        "gfoss_id": "1142",
        "name": "Cipressa",
        "place": "village",
        "population": "1157",
        "source": "geodati.gfoss.it"
      }
    },
    {
      "type": "node",
      "id": 66586711,
      "lat": 43.9100767,
      "lon": 8.0803641,
      "tags": {
        "gfoss_id": "1148",
        "name": "Diano Marina",
        "name:ru": "Диано-Марина",
        "place": "village",
        "population": "6159",
        "source": "geodati.gfoss.it"
      }
    },
    {
      "type": "node",
      "id": 66586714,
      "lat": 43.949625,
      "lon": 8.04155,
      "tags": {
        "gfoss_id": "1146",
        "name": "Diano Arentino",
        "place": "village",
        "population": "606",
        "source": "geodati.gfoss.it",
        "wikidata": "Q268773",
        "wikipedia": "it:Diano Arentino"
      }
    },
    {
      "type": "node",
      "id": 66586718,
      "lat": 43.890619,
      "lon": 7.599642,
      "tags": {
        "gfoss_id": "1172",
        "image": "https://commons.wikimedia.org/wiki/File:Rocchetta_Nervina.jpg",
        "name": "Rocchetta Nervina",
        "place": "village",
        "population": "259",
        "source": "geodati.gfoss.it",
        "wikidata": "Q269717",
        "wikimedia_commons": "File:Rocchetta Nervina-panorama2.jpg",
        "wikipedia": "it:Rocchetta Nervina"
      }
    },
    {
      "type": "node",
      "id": 66586724,
      "lat": 43.853721,
      "lon": 7.889848,
      "tags": {
        "gfoss_id": "1165",
        "name": "Pompeiana",
        "name:lij": "Pumpiàna",
        "place": "village",
        "population": "831",
        "source": "geodati.gfoss.it",
        "wikidata": "Q269534",
        "wikipedia": "it:Pompeiana"
      }
    },
    {
      "type": "node",
      "id": 66586727,
      "lat": 44.0698777,
      "lon": 7.8712894,
      "tags": {
        "gfoss_id": "1167",
        "name": "Pornassio",
        "place": "village",
        "population": "651",
        "source": "geodati.gfoss.it",
        "wikidata": "Q269319",
        "wikipedia": "it:Pornassio"
      }
    },
    {
      "type": "node",
      "id": 66586731,
      "lat": 43.8795375,
      "lon": 7.5148239,
      "tags": {
        "gfoss_id": "1159",
        "name": "Olivetta",
        "place": "village",
        "population": "238",
        "source": "geodati.gfoss.it",
        "wikidata": "Q269440",
        "wikipedia": "it:Olivetta San Michele"
      }
    },
    {
      "type": "node",
      "id": 66586739,
      "lat": 44.0668887,
      "lon": 7.817209,
      "tags": {
        "ele": "721",
        "gfoss_id": "1158",
        "name": "Montegrosso Pian Latte",
        "place": "village",
        "population": "140",
        "source": "geodati.gfoss.it"
      }
    },
    {
      "type": "node",
      "id": 66586741,
      "lat": 43.9327142,
      "lon": 7.6633135,
      "tags": {
        "capital": "8",
        "ele": "280",
        "loc_name": "Pìgna",
        "name": "Pigna",
        "place": "village",
        "population": "750",
        "wikidata": "Q30028878",
        "wikimedia_commons": "Category:Pigna (comune, Italy)",
        "wikipedia": "it:Pigna (Italia)"
      }
    },
    {
      "type": "node",
      "id": 66586746,
      "lat": 44.047026,
      "lon": 7.914946,
      "tags": {
        "gfoss_id": "1163",
        "name": "Pieve di Teco",
        "name:lij": "A Cêve",
        "place": "village",
        "population": "1336",
        "source": "geodati.gfoss.it",
        "wikidata": "Q269503",
        "wikipedia": "it:Pieve di Teco"
      }
    },
    {
      "type": "node",
      "id": 66586750,
      "lat": 43.8283447,
      "lon": 7.6542098,
      "tags": {
        "gfoss_id": "1179",
        "name": "Soldano",
        "place": "village",
        "population": "837",
        "source": "geodati.gfoss.it",
        "wikidata": "Q269816",
        "wikimedia_commons": "Category:Soldano",
        "wikipedia": "it:Soldano"
      }
    },
    {
      "type": "node",
      "id": 66586754,
      "lat": 43.852321,
      "lon": 7.898349,
      "tags": {
        "gfoss_id": "1181",
        "name": "Terzorio",
        "place": "village",
        "population": "214",
        "source": "geodati.gfoss.it",
        "wikidata": "Q269827",
        "wikimedia_commons": "Category:Terzorio",
        "wikipedia": "it:Terzorio"
      }
    },
    {
      "type": "node",
      "id": 66586759,
      "lat": 43.8198253,
      "lon": 7.7748827,
      "tags": {
        "addr:postcode": "18038",
        "gfoss_id": "1176",
        "loc_name": "Sanremu",
        "name": "Sanremo",
        "name:fr": "Sanremo",
        "name:ja": "サンレーモ",
        "name:mk": "Санремо",
        "name:oc": "Sant Rémol",
        "name:ru": "Сан-Ремо",
        "old_name": "Villa Matutiæ",
        "phone": "+39 0184 5801",
        "place": "town",
        "population": "54807",
        "source": "geodati.gfoss.it",
        "source:name:oc": "ieo-bdtopoc",
        "website": "https://www.comunedisanremo.it/",
        "wikidata": "Q33962",
        "wikipedia": "it:Sanremo"
      }
    },
    {
      "type": "node",
      "id": 66586762,
      "lat": 43.8377772,
      "lon": 7.8982074,
      "tags": {
        "gfoss_id": "1177",
        "name": "Santo Stefano al Mare",
        "place": "village",
        "population": "2073",
        "source": "geodati.gfoss.it",
        "wikidata": "Q269788",
        "wikipedia": "it:Santo Stefano al Mare"
      }
    },
    {
      "type": "node",
      "id": 66586765,
      "lat": 43.9031088,
      "lon": 7.7167756,
      "tags": {
        "alt_name": "Baiardo",
        "gfoss_id": "1128",
        "name": "Bajardo",
        "place": "village",
        "population": "278",
        "source": "geodati.gfoss.it",
        "wikidata": "Q268168",
        "wikimedia_commons": "File:Bajardo-panorama1.JPG",
        "wikipedia": "it:Bajardo"
      }
    },
    {
      "type": "node",
      "id": 66586769,
      "lat": 43.922924,
      "lon": 8.101152,
      "tags": {
        "gfoss_id": "1173",
        "name": "San Bartolomeo al Mare",
        "name:lij": "San Bertumê",
        "place": "village",
        "population": "2964",
        "source": "geodati.gfoss.it"
      }
    },
    {
      "type": "node",
      "id": 66586775,
      "lat": 43.9263186,
      "lon": 7.9364801,
      "tags": {
        "gfoss_id": "1168",
        "name": "Prelà",
        "place": "village",
        "population": "480",
        "source": "geodati.gfoss.it",
        "wikidata": "Q269688",
        "wikipedia": "it:Prelà"
      }
    },
    {
      "type": "node",
      "id": 66586778,
      "lat": 44.059627,
      "lon": 8.014947,
      "tags": {
        "gfoss_id": "1169",
        "name": "Ranzo",
        "name:lij": "Ransu",
        "place": "village",
        "population": "532",
        "source": "geodati.gfoss.it",
        "wikidata": "Q269695",
        "wikipedia": "it:Ranzo"
      }
    },
    {
      "type": "node",
      "id": 66586780,
      "lat": 44.057726,
      "lon": 7.981747,
      "tags": {
        "gfoss_id": "1130",
        "name": "Borghetto d'Arroscia",
        "name:lij": "U Burghettu",
        "place": "village",
        "population": "494",
        "source": "geodati.gfoss.it",
        "wikidata": "Q268230",
        "wikipedia": "it:Borghetto d'Arroscia"
      }
    },
    {
      "type": "node",
      "id": 66586784,
      "lat": 43.974924,
      "lon": 7.945147,
      "tags": {
        "gfoss_id": "1131",
        "name": "Borgomaro",
        "place": "village",
        "population": "842",
        "source": "geodati.gfoss.it",
        "wikidata": "Q268246",
        "wikipedia": "it:Borgomaro"
      }
    },
    {
      "type": "node",
      "id": 66586787,
      "lat": 44.0879649,
      "lon": 7.9147826,
      "tags": {
        "gfoss_id": "1125",
        "name": "Armo",
        "place": "village",
        "population": "129",
        "source": "geodati.gfoss.it"
      }
    },
    {
      "type": "node",
      "id": 66586790,
      "lat": 43.7850512,
      "lon": 7.6591094,
      "tags": {
        "gfoss_id": "1129",
        "name": "Bordighera",
        "name:oc": "Bordiguiera",
        "name:ru": "Бордигера",
        "name:tr": "Burdiger",
        "place": "town",
        "population": "10456",
        "source": "http://demo.istat.it/bilmens2016gen/index.html",
        "source:name:oc": "ieo-bdtopoc",
        "wikidata": "Q30022952"
      }
    },
    {
      "type": "node",
      "id": 66586795,
      "lat": 44.0459373,
      "lon": 7.960853,
      "tags": {
        "gfoss_id": "1187",
        "name": "Vessalico",
        "name:lij": "Vesargu",
        "place": "village",
        "population": "297",
        "source": "geodati.gfoss.it",
        "wikidata": "Q269910",
        "wikipedia": "it:Vessalico"
      }
    },
    {
      "type": "node",
      "id": 66586799,
      "lat": 43.968425,
      "lon": 8.089651,
      "tags": {
        "gfoss_id": "1188",
        "name": "Villa Faraldi",
        "name:lij": "A Villa",
        "place": "village",
        "population": "435",
        "source": "geodati.gfoss.it"
      }
    },
    {
      "type": "node",
      "id": 66586802,
      "lat": 43.992523,
      "lon": 7.766243,
      "tags": {
        "gfoss_id": "1182",
        "name": "Triora",
        "place": "village",
        "population": "408",
        "source": "geodati.gfoss.it",
        "wikidata": "Q269831",
        "wikimedia_commons": "File:Triora dal cimitero.jpg",
        "wikipedia": "it:Triora"
      }
    },
    {
      "type": "node",
      "id": 66586805,
      "lat": 43.812718,
      "lon": 7.666544,
      "tags": {
        "gfoss_id": "1183",
        "name": "Vallebona",
        "place": "village",
        "population": "1087",
        "source": "geodati.gfoss.it",
        "wikidata": "Q269885",
        "wikimedia_commons": "File:Vallebona.JPG",
        "wikipedia": "it:Vallebona"
      }
    },
    {
      "type": "node",
      "id": 66586810,
      "lat": 43.9237407,
      "lon": 8.0671862,
      "tags": {
        "gfoss_id": "1147",
        "name": "Diano Castello",
        "place": "village",
        "population": "1885",
        "source": "geodati.gfoss.it"
      }
    },
    {
      "type": "node",
      "id": 66586814,
      "lat": 43.855421,
      "lon": 7.938749,
      "tags": {
        "gfoss_id": "1145",
        "name": "Costarainera",
        "place": "village",
        "population": "718",
        "source": "geodati.gfoss.it",
        "wikidata": "Q268753",
        "wikipedia": "it:Costarainera"
      }
    },
    {
      "type": "node",
      "id": 66586816,
      "lat": 43.8798564,
      "lon": 7.9513674,
      "tags": {
        "gfoss_id": "1143",
        "name": "Civezza",
        "place": "village",
        "population": "536",
        "source": "geodati.gfoss.it",
        "wikidata": "Q268571",
        "wikimedia_commons": "File:Civezza - panoramio.jpg",
        "wikipedia": "it:Civezza"
      }
    },
    {
      "type": "node",
      "id": 66586819,
      "lat": 43.9676459,
      "lon": 7.9841386,
      "tags": {
        "gfoss_id": "1141",
        "name": "Chiusavecchia",
        "place": "village",
        "population": "476",
        "source": "geodati.gfoss.it",
        "wikidata": "Q268548",
        "wikipedia": "it:Chiusavecchia"
      }
    },
    {
      "type": "node",
      "id": 66586820,
      "lat": 43.9257729,
      "lon": 8.1151521,
      "tags": {
        "addr:postcode": "18010",
        "gfoss_id": "1138",
        "name": "Cervo",
        "name:lij": "U Sêrvu",
        "place": "village",
        "population": "1128",
        "source": "geodati.gfoss.it",
        "website": "http://www.cervo.com/",
        "wikidata": "Q268361",
        "wikipedia": "it:Cervo (Italia)"
      }
    },
    {
      "type": "node",
      "id": 66586821,
      "lat": 43.8807025,
      "lon": 7.7745643,
      "tags": {
        "name": "Ceriana",
        "name:lij": "Seriana",
        "place": "village",
        "population": "1305",
        "source": "geodati.gfoss.it",
        "wikidata": "Q268330",
        "wikimedia_commons": "File:Ceriana-P1010175.JPG",
        "wikipedia": "it:Ceriana"
      }
    },
    {
      "type": "node",
      "id": 66586825,
      "lat": 43.9285566,
      "lon": 7.674434,
      "tags": {
        "alt_name": "Castelvittorio",
        "ele": "420",
        "loc_name": "O Castê",
        "name": "Castel Vittorio",
        "place": "village",
        "population": "275",
        "wikidata": "Q30024148",
        "wikimedia_commons": "Category:Castel Vittorio",
        "wikipedia": "it:Castel Vittorio"
      }
    },
    {
      "type": "node",
      "id": 66586830,
      "lat": 43.9597733,
      "lon": 7.8664778,
      "tags": {
        "gfoss_id": "1134",
        "name": "Carpasio",
        "place": "village",
        "population": "118",
        "source": "geodati.gfoss.it",
        "wikidata": "Q268291",
        "wikipedia": "it:Carpasio"
      }
    },
    {
      "type": "node",
      "id": 66586833,
      "lat": 44.021425,
      "lon": 7.871445,
      "tags": {
        "gfoss_id": "1170",
        "name": "Rezzo",
        "place": "village",
        "population": "393",
        "source": "geodati.gfoss.it",
        "wikidata": "Q269700",
        "wikipedia": "it:Rezzo"
      }
    },
    {
      "type": "node",
      "id": 66586839,
      "lat": 43.940324,
      "lon": 8.01385,
      "tags": {
        "gfoss_id": "1166",
        "name": "Pontedassio",
        "name:ru": "Понтедассио",
        "place": "village",
        "population": "2002",
        "source": "geodati.gfoss.it",
        "wikidata": "Q269562",
        "wikipedia": "it:Pontedassio"
      }
    },
    {
      "type": "node",
      "id": 66586843,
      "lat": 43.889722,
      "lon": 7.902948,
      "tags": {
        "gfoss_id": "1162",
        "name": "Pietrabruna",
        "place": "village",
        "population": "560",
        "source": "geodati.gfoss.it",
        "wikidata": "Q269489",
        "wikipedia": "it:Pietrabruna"
      }
    },
    {
      "type": "node",
      "id": 66586847,
      "lat": 43.8020802,
      "lon": 7.7181662,
      "tags": {
        "gfoss_id": "1160",
        "name": "Ospedaletti",
        "place": "village",
        "population": "3351",
        "source": "geodati.gfoss.it",
        "wikidata": "Q269458",
        "wikipedia": "it:Ospedaletti"
      }
    },
    {
      "type": "node",
      "id": 66586850,
      "lat": 43.9903183,
      "lon": 7.7744405,
      "tags": {
        "gfoss_id": "1156",
        "name": "Molini di Triora",
        "place": "village",
        "population": "695",
        "source": "geodati.gfoss.it",
        "wikidata": "Q269280",
        "wikipedia": "it:Molini di Triora"
      }
    },
    {
      "type": "node",
      "id": 66586852,
      "lat": 43.9074393,
      "lon": 7.9510985,
      "tags": {
        "gfoss_id": "1151",
        "name": "Dolcedo",
        "place": "village",
        "population": "1193",
        "source": "geodati.gfoss.it",
        "wikidata": "Q269013",
        "wikipedia": "it:Dolcedo"
      }
    },
    {
      "type": "node",
      "id": 66586854,
      "lat": 43.931424,
      "lon": 8.071651,
      "tags": {
        "gfoss_id": "1149",
        "name": "Diano San Pietro",
        "place": "village",
        "population": "1022",
        "source": "geodati.gfoss.it"
      }
    },
    {
      "type": "node",
      "id": 66586858,
      "lat": 44.0659288,
      "lon": 9.9574096,
      "tags": {
        "gfoss_id": "1325",
        "name": "Ameglia",
        "place": "village",
        "population": "4520",
        "source": "geodati.gfoss.it"
      }
    },
    {
      "type": "node",
      "id": 66586862,
      "lat": 44.1981245,
      "lon": 9.786758,
      "tags": {
        "gfoss_id": "1327",
        "name": "Beverino Castello",
        "place": "village",
        "source": "geodati.gfoss.it"
      }
    },
    {
      "type": "node",
      "id": 66586870,
      "lat": 44.1162475,
      "lon": 9.9122032,
      "tags": {
        "gfoss_id": "1326",
        "name": "Ponte di Arcola",
        "place": "village",
        "population": "9914",
        "source": "geodati.gfoss.it"
      }
    },
    {
      "type": "node",
      "id": 66586879,
      "lat": 44.2182308,
      "lon": 9.5200465,
      "tags": {
        "gfoss_id": "1336",
        "name": "Deiva Marina",
        "place": "village",
        "population": "1463",
        "source": "geodati.gfoss.it"
      }
    },
    {
      "type": "node",
      "id": 66586890,
      "lat": 44.2419991,
      "lon": 9.6557533,
      "tags": {
        "alt_name": "Carrodano Inferiore",
        "gfoss_id": "1334",
        "name": "Carrodano",
        "place": "village",
        "population": "503",
        "source": "geodati.gfoss.it"
      }
    },
    {
      "type": "node",
      "id": 66586898,
      "lat": 43.8182416,
      "lon": 7.6488198,
      "tags": {
        "gfoss_id": "1174",
        "name": "San Biagio della Cima",
        "place": "village",
        "population": "1273",
        "source": "geodati.gfoss.it",
        "wikidata": "Q248807",
        "wikipedia": "it:San Biagio della Cima"
      }
    },
    {
      "type": "node",
      "id": 66586902,
      "lat": 43.8383252,
      "lon": 7.8826679,
      "tags": {
        "gfoss_id": "1171",
        "name": "Riva Ligure",
        "place": "village",
        "population": "2747",
        "source": "geodati.gfoss.it",
        "wikidata": "Q269704",
        "wikipedia": "it:Riva Ligure"
      }
    },
    {
      "type": "node",
      "id": 66586909,
      "lat": 43.826406,
      "lon": 7.6945093,
      "tags": {
        "gfoss_id": "1178",
        "name": "Seborga",
        "place": "village",
        "population": "279",
        "source": "geodati.gfoss.it",
        "wikidata": "Q269808",
        "wikipedia": "it:Seborga"
      }
    },
    {
      "type": "node",
      "id": 66586923,
      "lat": 43.8614402,
      "lon": 7.8522764,
      "tags": {
        "gfoss_id": "1180",
        "image": "https://commons.wikimedia.org/wiki/File:Taggia_Panorama.jpg",
        "name": "Taggia",
        "name:ru": "Таджа",
        "place": "village",
        "wikidata": "Q269823",
        "wikimedia_commons": "Category:Panoramics in Taggia",
        "wikipedia": "it:Taggia"
      }
    },
    {
      "type": "node",
      "id": 66586929,
      "lat": 43.7917623,
      "lon": 7.6033131,
      "tags": {
        "gfoss_id": "1186",
        "name": "Ventimiglia",
        "name:fr": "Vintimille",
        "name:it": "Ventimiglia",
        "name:ja": "ヴェンティミーリア",
        "name:la": "Albintimilium",
        "name:lij": "Ventemiglia",
        "name:oc": "Ventemilha",
        "name:ru": "Вентимилья",
        "name:tr": "Ventimil",
        "place": "town",
        "population": "24189",
        "source": "http://demo.istat.it/bilmens2016gen/index.html",
        "source:name:oc": "ieo-bdtopoc",
        "wikidata": "Q191759",
        "wikipedia": "it:Ventimiglia"
      }
    },
    {
      "type": "node",
      "id": 66586936,
      "lat": 43.93266,
      "lon": 7.9532267,
      "tags": {
        "gfoss_id": "1185",
        "name": "Vasia",
        "place": "village",
        "population": "440",
        "source": "geodati.gfoss.it",
        "wikidata": "Q269897",
        "wikipedia": "it:Vasia"
      }
    },
    {
      "type": "node",
      "id": 66586942,
      "lat": 44.2939663,
      "lon": 9.675716,
      "tags": {
        "gfoss_id": "1352",
        "name": "Sesta Godano",
        "place": "village",
        "population": "1554",
        "source": "geodati.gfoss.it"
      }
    },
    {
      "type": "node",
      "id": 66586946,
      "lat": 44.3760527,
      "lon": 9.5926994,
      "tags": {
        "gfoss_id": "1353",
        "name": "Varese Ligure",
        "place": "village",
        "population": "2358",
        "source": "geodati.gfoss.it"
      }
    },
    {
      "type": "node",
      "id": 66586953,
      "lat": 44.1876494,
      "lon": 9.8956159,
      "tags": {
        "gfoss_id": "1328",
        "name": "Bolano",
        "place": "village",
        "population": "7391",
        "source": "geodati.gfoss.it"
      }
    },
    {
      "type": "node",
      "id": 66586956,
      "lat": 44.2236798,
      "lon": 9.7214041,
      "tags": {
        "gfoss_id": "1330",
        "name": "Borghetto di Vara",
        "place": "village",
        "population": "1005",
        "source": "geodati.gfoss.it"
      }
    },
    {
      "type": "node",
      "id": 66586961,
      "lat": 44.2434732,
      "lon": 9.8367245,
      "tags": {
        "alt_name": "Castello di Calice",
        "gfoss_id": "1332",
        "name": "Calice al Cornoviglio",
        "place": "village",
        "population": "1173",
        "source": "geodati.gfoss.it"
      }
    },
    {
      "type": "node",
      "id": 66586966,
      "lat": 44.0998518,
      "lon": 10.0169419,
      "tags": {
        "gfoss_id": "1335",
        "name": "Castelnuovo Magra",
        "place": "village",
        "population": "7935",
        "source": "geodati.gfoss.it"
      }
    },
    {
      "type": "node",
      "id": 66586969,
      "lat": 44.3373132,
      "lon": 9.5363278,
      "tags": {
        "gfoss_id": "1342",
        "name": "Maissana",
        "place": "village",
        "population": "616",
        "source": "geodati.gfoss.it"
      }
    },
    {
      "type": "node",
      "id": 66586971,
      "lat": 44.1465216,
      "lon": 9.6555583,
      "tags": {
        "gfoss_id": "1343",
        "name": "Monterosso al Mare",
        "name:it": "Monterosso al Mare",
        "name:ru": "Монтероссо",
        "name:zh": "蒙特罗索",
        "place": "village",
        "population": "1571",
        "source": "geodati.gfoss.it",
        "wikidata": "Q270217",
        "wikimedia_commons": "Category:Monterosso al Mare",
        "wikipedia": "en:Monterosso al Mare"
      }
    },
    {
      "type": "node",
      "id": 66586974,
      "lat": 44.2071004,
      "lon": 9.5541046,
      "tags": {
        "gfoss_id": "1338",
        "name": "Framura",
        "place": "village",
        "population": "744",
        "source": "geodati.gfoss.it"
      }
    },
    {
      "type": "node",
      "id": 66586977,
      "lat": 44.1537194,
      "lon": 9.7638623,
      "tags": {
        "alt_name": "Riccò del Golfo",
        "gfoss_id": "1347",
        "name": "Riccò del Golfo di Spezia",
        "place": "village",
        "population": "3367",
        "source": "geodati.gfoss.it"
      }
    },
    {
      "type": "node",
      "id": 66586981,
      "lat": 44.1835463,
      "lon": 9.5825259,
      "tags": {
        "gfoss_id": "1329",
        "name": "Bonassola",
        "place": "village",
        "population": "974",
        "source": "geodati.gfoss.it"
      }
    },
    {
      "type": "node",
      "id": 66586984,
      "lat": 44.237038,
      "lon": 9.7241009,
      "tags": {
        "gfoss_id": "1331",
        "name": "Brugnato",
        "place": "village",
        "population": "1191",
        "source": "geodati.gfoss.it"
      }
    },
    {
      "type": "node",
      "id": 66586988,
      "lat": 44.0736073,
      "lon": 9.9099135,
      "tags": {
        "gfoss_id": "1340",
        "name": "Lerici",
        "name:uk": "Леричі",
        "name:zh": "莱里奇",
        "place": "town",
        "population": "9942",
        "source": "geodati.gfoss.it"
      }
    },
    {
      "type": "node",
      "id": 66586989,
      "lat": 44.1699056,
      "lon": 9.6120397,
      "tags": {
        "gfoss_id": "1341",
        "name": "Levanto",
        "place": "village",
        "population": "5641",
        "source": "geodati.gfoss.it"
      }
    },
    {
      "type": "node",
      "id": 66586993,
      "lat": 44.251273,
      "lon": 9.7572844,
      "tags": {
        "gfoss_id": "1349",
        "name": "Rocchetta di Vara",
        "place": "village",
        "population": "852",
        "source": "geodati.gfoss.it"
      }
    },
    {
      "type": "node",
      "id": 66586997,
      "lat": 44.1131762,
      "lon": 9.9599823,
      "tags": {
        "gfoss_id": "1351",
        "name": "Sarzana",
        "name:ru": "Сарцана",
        "place": "town",
        "population": "21976",
        "source": "geodati.gfoss.it",
        "wikidata": "Q160628",
        "wikipedia": "it:Sarzana"
      }
    },
    {
      "type": "node",
      "id": 66587002,
      "lat": 44.3683143,
      "lon": 8.2348661,
      "tags": {
        "alt_name": "Chiesa",
        "gfoss_id": "1105",
        "name": "Cosseria",
        "place": "village",
        "population": "1034",
        "source": "geodati.gfoss.it"
      }
    },
    {
      "type": "node",
      "id": 66587005,
      "lat": 44.091629,
      "lon": 8.223251,
      "tags": {
        "gfoss_id": "1212",
        "name": "Ceriale",
        "name:lij": "U Sejô",
        "name:ru": "Чериале",
        "place": "village",
        "population": "5277",
        "source": "geodati.gfoss.it"
      }
    },
    {
      "type": "node",
      "id": 66587008,
      "lat": 44.3463235,
      "lon": 8.5444342,
      "tags": {
        "gfoss_id": "1210",
        "name": "Celle Ligure",
        "place": "village",
        "population": "5222",
        "source": "http://demo.istat.it/bilmens2016gen/index.html",
        "wikidata": "Q270613"
      }
    },
    {
      "type": "node",
      "id": 66587011,
      "lat": 44.2368806,
      "lon": 8.1144696,
      "tags": {
        "gfoss_id": "1205",
        "name": "Calizzano",
        "place": "village",
        "population": "1583"
      }
    },
    {
      "type": "node",
      "id": 66587014,
      "lat": 44.1287537,
      "lon": 8.2593713,
      "tags": {
        "gfoss_id": "1222",
        "name": "Loano",
        "name:it": "Loano",
        "name:lij": "Löa",
        "name:ru": "Лоано",
        "place": "town",
        "population": "11407",
        "source": "geodati.gfoss.it"
      }
    },
    {
      "type": "node",
      "id": 66587018,
      "lat": 44.447939,
      "lon": 8.394149,
      "tags": {
        "gfoss_id": "1220",
        "name": "Giusvalla",
        "place": "village",
        "population": "425",
        "source": "geodati.gfoss.it"
      }
    },
    {
      "type": "node",
      "id": 66587020,
      "lat": 44.1689049,
      "lon": 8.3436524,
      "tags": {
        "gfoss_id": "1217",
        "name": "Finale Ligure",
        "name:lij": "Finô",
        "name:ru": "Финале-Лигуре",
        "place": "town",
        "population": "11711",
        "source": "geodati.gfoss.it"
      }
    },
    {
      "type": "node",
      "id": 66587021,
      "lat": 44.137529,
      "lon": 8.103148,
      "tags": {
        "gfoss_id": "1216",
        "name": "Erli",
        "name:lij": "Èrli",
        "place": "village",
        "population": "244",
        "source": "geodati.gfoss.it"
      }
    },
    {
      "type": "node",
      "id": 66587022,
      "lat": 44.1478185,
      "lon": 9.9250972,
      "tags": {
        "gfoss_id": "1350",
        "name": "Ponzano Magra",
        "place": "village",
        "population": "8344",
        "source": "geodati.gfoss.it",
        "wikidata": "Q24416899"
      }
    },
    {
      "type": "node",
      "id": 66587026,
      "lat": 44.0506605,
      "lon": 9.8344585,
      "tags": {
        "alt_name": "Portovenere",
        "gfoss_id": "1346",
        "heritage": "1",
        "heritage:operator": "whc",
        "name": "Porto Venere",
        "place": "village",
        "population": "3630",
        "source": "geodati.gfoss.it",
        "wikidata": "Q188315",
        "wikipedia": "it:Porto Venere"
      }
    },
    {
      "type": "node",
      "id": 66587027,
      "lat": 44.1781487,
      "lon": 9.7234963,
      "tags": {
        "gfoss_id": "1345",
        "name": "Pignone",
        "place": "village",
        "population": "650",
        "source": "geodati.gfoss.it"
      }
    },
    {
      "type": "node",
      "id": 66587029,
      "lat": 44.3992684,
      "lon": 8.2745606,
      "tags": {
        "gfoss_id": "1203",
        "name": "Cairo Montenotte",
        "name:ru": "Кайро-Монтенотте",
        "place": "town",
        "population": "13269",
        "source": "geodati.gfoss.it"
      }
    },
    {
      "type": "node",
      "id": 66587033,
      "lat": 44.0890935,
      "lon": 10.0539817,
      "tags": {
        "name": "Ortonovo",
        "place": "village",
        "population": "306",
        "wikidata": "Q270220",
        "wikipedia": "it:Luni"
      }
    },
    {
      "type": "node",
      "id": 66587035,
      "lat": 44.1424699,
      "lon": 9.8901699,
      "tags": {
        "gfoss_id": "1355",
        "name": "Vezzano Inferiore",
        "place": "village",
        "population": "7424",
        "source": "geodati.gfoss.it"
      }
    },
    {
      "type": "node",
      "id": 66587036,
      "lat": 44.1349412,
      "lon": 9.6827757,
      "tags": {
        "gfoss_id": "1354",
        "name": "Vernazza",
        "name:ru": "Вернацца",
        "place": "village",
        "population": "848",
        "source": "geodati.gfoss.it"
      }
    },
    {
      "type": "node",
      "id": 66587038,
      "lat": 44.3272723,
      "lon": 8.5031895,
      "tags": {
        "gfoss_id": "1191",
        "name": "Albissola Marina",
        "name:ru": "Альбиссола-Марина",
        "place": "village",
        "population": "5487",
        "source": "geodati.gfoss.it"
      }
    },
    {
      "type": "node",
      "id": 66587039,
      "lat": 43.9519286,
      "lon": 8.1456487,
      "tags": {
        "gfoss_id": "1194",
        "name": "Andora",
        "name:lij": "Andô̱a",
        "name:ru": "Андора",
        "place": "village",
        "population": "7552",
        "source": "geodati.gfoss.it"
      }
    },
    {
      "type": "node",
      "id": 66587040,
      "lat": 44.005626,
      "lon": 8.029249,
      "tags": {
        "gfoss_id": "1248",
        "name": "Testico",
        "place": "village",
        "population": "200",
        "source": "geodati.gfoss.it"
      }
    },
    {
      "type": "node",
      "id": 66587042,
      "lat": 44.3592996,
      "lon": 8.5753273,
      "tags": {
        "gfoss_id": "1253",
        "name": "Varazze",
        "name:ru": "Варацце",
        "place": "town",
        "population": "13251",
        "source": "geodati.gfoss.it"
      }
    },
    {
      "type": "node",
      "id": 66587044,
      "lat": 44.2782607,
      "lon": 8.2341987,
      "tags": {
        "gfoss_id": "1202",
        "name": "Bormida",
        "place": "village",
        "population": "453",
        "source": "geodati.gfoss.it"
      }
    },
    {
      "type": "node",
      "id": 66587048,
      "lat": 44.3902587,
      "lon": 8.2079522,
      "tags": {
        "gfoss_id": "1211",
        "name": "Cengio",
        "name:ru": "Ченджо",
        "place": "village",
        "population": "3563"
      }
    },
    {
      "type": "node",
      "id": 66587051,
      "lat": 44.078228,
      "lon": 8.107449,
      "tags": {
        "alt_name": "Chiesa",
        "gfoss_id": "1195",
        "name": "Arnasco",
        "name:lij": "Arnascu",
        "place": "village",
        "population": "645",
        "source": "geodati.gfoss.it"
      }
    },
    {
      "type": "node",
      "id": 66587053,
      "lat": 44.1606324,
      "lon": 8.3091865,
      "tags": {
        "gfoss_id": "1201",
        "name": "Borgio",
        "name:lij": "Borṡi",
        "place": "village",
        "population": "2095",
        "source": "geodati.gfoss.it"
      }
    },
    {
      "type": "node",
      "id": 66587057,
      "lat": 44.367536,
      "lon": 8.201746,
      "tags": {
        "gfoss_id": "1226",
        "name": "Millesimo",
        "name:ru": "Миллезимо",
        "place": "village",
        "population": "3250",
        "source": "geodati.gfoss.it"
      }
    },
    {
      "type": "node",
      "id": 66587063,
      "lat": 44.4904597,
      "lon": 8.4124727,
      "tags": {
        "gfoss_id": "1227",
        "name": "Mioglia",
        "place": "village",
        "population": "561",
        "source": "geodati.gfoss.it"
      }
    },
    {
      "type": "node",
      "id": 66587069,
      "lat": 44.1914858,
      "lon": 8.2503958,
      "tags": {
        "gfoss_id": "1223",
        "name": "Magliolo",
        "name:lij": "Maiö",
        "place": "village",
        "population": "709",
        "source": "geodati.gfoss.it"
      }
    },
    {
      "type": "node",
      "id": 66587074,
      "lat": 44.2909819,
      "lon": 8.2966494,
      "tags": {
        "gfoss_id": "1224",
        "name": "Mallare",
        "place": "village",
        "population": "1293",
        "source": "geodati.gfoss.it"
      }
    },
    {
      "type": "node",
      "id": 66587078,
      "lat": 44.3511944,
      "lon": 8.2564515,
      "tags": {
        "gfoss_id": "1238",
        "name": "Plodio",
        "place": "village",
        "population": "550",
        "source": "geodati.gfoss.it"
      }
    },
    {
      "type": "node",
      "id": 66587082,
      "lat": 44.2258176,
      "lon": 8.2631084,
      "tags": {
        "gfoss_id": "1241",
        "name": "Rialto",
        "name:lij": "Riôtu",
        "place": "village",
        "population": "564",
        "source": "geodati.gfoss.it"
      }
    },
    {
      "type": "node",
      "id": 66587083,
      "lat": 44.1137497,
      "lon": 8.0317127,
      "tags": {
        "gfoss_id": "1229",
        "name": "Nasino",
        "name:lij": "Naxìn",
        "place": "village",
        "population": "224",
        "source": "geodati.gfoss.it"
      }
    },
    {
      "type": "node",
      "id": 66587086,
      "lat": 44.2058832,
      "lon": 8.416419,
      "tags": {
        "gfoss_id": "1230",
        "name": "Noli",
        "name:ru": "Ноли",
        "place": "village",
        "population": "2946",
        "source": "geodati.gfoss.it"
      }
    },
    {
      "type": "node",
      "id": 66587092,
      "lat": 44.0747064,
      "lon": 8.0739301,
      "tags": {
        "gfoss_id": "1254",
        "name": "Vendone",
        "name:lij": "Vendun",
        "place": "village",
        "population": "388",
        "source": "geodati.gfoss.it"
      }
    },
    {
      "type": "node",
      "id": 66587093,
      "lat": 44.0492503,
      "lon": 8.2131239,
      "tags": {
        "gfoss_id": "1190",
        "name": "Albenga",
        "name:lij": "Arbenga",
        "name:ru": "Альбенга",
        "place": "town",
        "population": "24213",
        "source": "geodati.gfoss.it",
        "wikidata": "Q241298"
      }
    },
    {
      "type": "node",
      "id": 66587094,
      "lat": 44.0080109,
      "lon": 8.1730265,
      "tags": {
        "gfoss_id": "1189",
        "name": "Alassio",
        "name:lij": "Ar̂asce",
        "name:ru": "Алассио",
        "place": "town",
        "population": "10934",
        "source": "geodati.gfoss.it"
      }
    },
    {
      "type": "node",
      "id": 66587099,
      "lat": 44.3618091,
      "lon": 8.1919501,
      "tags": {
        "name": "Roccavignale",
        "place": "village",
        "population": "547"
      }
    },
    {
      "type": "node",
      "id": 66587108,
      "lat": 44.0004199,
      "lon": 8.0580389,
      "tags": {
        "alt_name": "Rossi",
        "gfoss_id": "1247",
        "name": "Stellanello",
        "place": "village",
        "population": "754",
        "source": "geodati.gfoss.it"
      }
    },
    {
      "type": "node",
      "id": 66587113,
      "lat": 44.0702888,
      "lon": 8.0500191,
      "tags": {
        "gfoss_id": "1231",
        "name": "Onzo",
        "name:lij": "Unsu",
        "place": "village",
        "population": "219",
        "source": "geodati.gfoss.it"
      }
    },
    {
      "type": "node",
      "id": 66587116,
      "lat": 44.3165799,
      "lon": 8.1642967,
      "tags": {
        "gfoss_id": "1228",
        "name": "Murialdo",
        "place": "village",
        "population": "841",
        "source": "geodati.gfoss.it"
      }
    },
    {
      "type": "node",
      "id": 66587119,
      "lat": 44.4861788,
      "lon": 8.3061011,
      "tags": {
        "gfoss_id": "1236",
        "name": "Piana Crixia",
        "place": "village",
        "population": "788",
        "source": "geodati.gfoss.it"
      }
    },
    {
      "type": "node",
      "id": 66587128,
      "lat": 44.1131956,
      "lon": 8.0741452,
      "tags": {
        "gfoss_id": "1208",
        "is_in": "Castelbianco",
        "name": "Veravo",
        "name:lij": "Ve(r)avu",
        "place": "village",
        "population": "61"
      }
    },
    {
      "type": "node",
      "id": 66587134,
      "lat": 44.1725509,
      "lon": 8.2471878,
      "tags": {
        "gfoss_id": "1219",
        "name": "Giustenice",
        "name:lij": "Giüstexine",
        "place": "village",
        "population": "977",
        "source": "geodati.gfoss.it"
      }
    },
    {
      "type": "node",
      "id": 66587136,
      "lat": 44.034227,
      "lon": 8.09565,
      "tags": {
        "gfoss_id": "1218",
        "name": "Garlenda",
        "place": "village",
        "population": "957",
        "source": "geodati.gfoss.it"
      }
    },
    {
      "type": "node",
      "id": 66587140,
      "lat": 43.9788263,
      "lon": 8.157351,
      "tags": {
        "gfoss_id": "1221",
        "name": "Laigueglia",
        "place": "village",
        "population": "1810",
        "source": "geodati.gfoss.it"
      }
    },
    {
      "type": "node",
      "id": 66587145,
      "lat": 44.2995752,
      "lon": 8.0706198,
      "tags": {
        "alt_name": "San Vincenzo",
        "gfoss_id": "1225",
        "name": "Massimino",
        "place": "village",
        "population": "113",
        "source": "geodati.gfoss.it"
      }
    },
    {
      "type": "node",
      "id": 66587148,
      "lat": 44.053427,
      "lon": 8.096649,
      "tags": {
        "gfoss_id": "1233",
        "name": "Ortovero",
        "place": "village",
        "population": "1090",
        "source": "geodati.gfoss.it"
      }
    },
    {
      "type": "node",
      "id": 66587152,
      "lat": 44.2826316,
      "lon": 8.2021436,
      "tags": {
        "gfoss_id": "1234",
        "name": "Osiglia",
        "place": "village",
        "population": "444",
        "source": "geodati.gfoss.it"
      }
    },
    {
      "type": "node",
      "id": 66587155,
      "lat": 44.3574727,
      "lon": 8.2901625,
      "tags": {
        "gfoss_id": "1206",
        "name": "Carcare",
        "name:ru": "Каркаре",
        "place": "village",
        "population": "5662",
        "source": "geodati.gfoss.it"
      }
    },
    {
      "type": "node",
      "id": 66587157,
      "lat": 44.0321164,
      "lon": 8.0502228,
      "tags": {
        "alt_name": "Borgo",
        "gfoss_id": "1207",
        "name": "Casanova Lerrone",
        "place": "village",
        "population": "749",
        "source": "geodati.gfoss.it"
      }
    },
    {
      "type": "node",
      "id": 66587160,
      "lat": 44.129829,
      "lon": 8.116648,
      "tags": {
        "gfoss_id": "1209",
        "name": "Castelvecchio di Rocca Barbena",
        "name:lij": "Castrevegliu",
        "place": "village",
        "population": "145",
        "source": "geodati.gfoss.it"
      }
    },
    {
      "type": "node",
      "id": 66587164,
      "lat": 44.443038,
      "lon": 8.305947,
      "tags": {
        "gfoss_id": "1215",
        "name": "Dego",
        "place": "village",
        "population": "1948",
        "source": "geodati.gfoss.it"
      }
    },
    {
      "type": "node",
      "id": 66587168,
      "lat": 44.1931231,
      "lon": 8.1324517,
      "tags": {
        "fixme": "non sembra il centro del paese",
        "gfoss_id": "1197",
        "name": "Bardineto",
        "name:lij": "Bardenèi",
        "place": "village",
        "population": "634",
        "source": "geodati.gfoss.it"
      }
    },
    {
      "type": "node",
      "id": 66587171,
      "lat": 44.1357684,
      "lon": 8.2217538,
      "tags": {
        "name": "Boissano",
        "name:it": "Boissano",
        "name:lij": "Buinzan",
        "name:ru": "Бойссано",
        "place": "village",
        "population": "2061",
        "postal_code": "17054",
        "source": "geodati.gfoss.it"
      }
    },
    {
      "type": "node",
      "id": 66587173,
      "lat": 44.1144461,
      "lon": 8.235328,
      "tags": {
        "gfoss_id": "1200",
        "name": "Borghetto Santo Spirito",
        "name:lij": "U Burghettu",
        "place": "village",
        "population": "5075",
        "source": "geodati.gfoss.it"
      }
    },
    {
      "type": "node",
      "id": 66587175,
      "lat": 44.204933,
      "lon": 8.295351,
      "tags": {
        "gfoss_id": "1204",
        "name": "Calice Ligure",
        "name:lij": "Côrxi",
        "place": "village",
        "population": "1461",
        "source": "geodati.gfoss.it"
      }
    },
    {
      "type": "node",
      "id": 66587176,
      "lat": 44.12513,
      "lon": 8.1715202,
      "tags": {
        "gfoss_id": "1196",
        "name": "Balestrino",
        "name:lij": "Barestin",
        "place": "village",
        "population": "535",
        "source": "geodati.gfoss.it"
      }
    },
    {
      "type": "node",
      "id": 66587179,
      "lat": 44.249735,
      "lon": 8.443353,
      "tags": {
        "gfoss_id": "1198",
        "name": "Bergeggi",
        "place": "village",
        "population": "1147",
        "source": "geodati.gfoss.it"
      }
    },
    {
      "type": "node",
      "id": 66587183,
      "lat": 44.339838,
      "lon": 8.509353,
      "tags": {
        "gfoss_id": "1192",
        "name": "Albisola Superiore",
        "place": "town",
        "population": "10163",
        "source": "geodati.gfoss.it"
      }
    },
    {
      "type": "node",
      "id": 66587186,
      "lat": 44.3359819,
      "lon": 8.3399306,
      "tags": {
        "gfoss_id": "1193",
        "name": "Altare",
        "name:ru": "Альтаре",
        "place": "village",
        "population": "2211",
        "source": "geodati.gfoss.it"
      }
    },
    {
      "type": "node",
      "id": 66587191,
      "lat": 44.111029,
      "lon": 8.115849,
      "tags": {
        "gfoss_id": "1257",
        "name": "Zuccarello",
        "name:lij": "Süccaèllu",
        "place": "village",
        "population": "289",
        "source": "geodati.gfoss.it"
      }
    },
    {
      "type": "node",
      "id": 66587195,
      "lat": 44.0468362,
      "lon": 8.1428461,
      "tags": {
        "gfoss_id": "1256",
        "name": "Villanova d'Albenga",
        "name:lij": "Villanöva",
        "place": "village",
        "population": "1991",
        "source": "geodati.gfoss.it"
      }
    },
    {
      "type": "node",
      "id": 66587198,
      "lat": 44.2714401,
      "lon": 8.4382205,
      "tags": {
        "gfoss_id": "1252",
        "name": "Vado Ligure",
        "place": "village",
        "population": "8336",
        "source": "geodati.gfoss.it"
      }
    },
    {
      "type": "node",
      "id": 66587202,
      "lat": 44.1764742,
      "lon": 8.2684492,
      "tags": {
        "gfoss_id": "1250",
        "name": "Tovo San Giacomo",
        "name:lij": "U Tû",
        "place": "village",
        "population": "2535",
        "population:date": "2022-12-31",
        "source": "geodati.gfoss.it",
        "source:population": "Comune di Tovo San Giacomo"
      }
    },
    {
      "type": "node",
      "id": 66587207,
      "lat": 44.12753,
      "lon": 8.20485,
      "tags": {
        "gfoss_id": "1249",
        "name": "Toirano",
        "name:lij": "Tuiràn",
        "place": "village",
        "population": "2089",
        "source": "geodati.gfoss.it"
      }
    },
    {
      "type": "node",
      "id": 66587211,
      "lat": 44.2272571,
      "lon": 8.4191772,
      "tags": {
        "gfoss_id": "1245",
        "name": "Spotorno",
        "place": "village",
        "population": "3803",
        "source": "geodati.gfoss.it"
      }
    },
    {
      "type": "node",
      "id": 66587216,
      "lat": 44.4789695,
      "lon": 8.4901712,
      "tags": {
        "gfoss_id": "1243",
        "name": "Sassello",
        "name:lij": "U Sascé",
        "place": "village",
        "population": "1765",
        "source": "geodati.gfoss.it"
      }
    },
    {
      "type": "node",
      "id": 66587218,
      "lat": 44.292536,
      "lon": 8.412652,
      "tags": {
        "gfoss_id": "1240",
        "name": "Quiliano",
        "place": "village",
        "population": "7232",
        "source": "geodati.gfoss.it"
      }
    },
    {
      "type": "node",
      "id": 66587222,
      "lat": 44.4446264,
      "lon": 8.43446,
      "tags": {
        "gfoss_id": "1239",
        "name": "Pontinvrea",
        "place": "village",
        "population": "822",
        "source": "geodati.gfoss.it"
      }
    },
    {
      "type": "node",
      "id": 66587226,
      "lat": 44.152931,
      "lon": 8.286552,
      "tags": {
        "gfoss_id": "1237",
        "name": "Pietra Ligure",
        "name:lij": "A Prìa",
        "name:ru": "Пьетра-Лигуре",
        "place": "village",
        "population": "8992",
        "source": "geodati.gfoss.it"
      }
    },
    {
      "type": "node",
      "id": 66587231,
      "lat": 44.3272753,
      "lon": 8.2754352,
      "tags": {
        "gfoss_id": "1235",
        "name": "Pallare",
        "place": "village",
        "population": "934",
        "source": "geodati.gfoss.it"
      }
    },
    {
      "type": "node",
      "id": 96085012,
      "lat": 44.3166021,
      "lon": 9.1750918,
      "tags": {
        "name": "San Fruttuoso di Camogli",
        "place": "hamlet"
      }
    },
    {
      "type": "node",
      "id": 208189615,
      "lat": 44.5062554,
      "lon": 9.1410308,
      "tags": {
        "name": "Marzano",
        "place": "hamlet"
      }
    },
    {
      "type": "node",
      "id": 215008725,
      "lat": 44.5228731,
      "lon": 9.1129436,
      "tags": {
        "name": "Scabbiabella",
        "place": "hamlet"
      }
    },
    {
      "type": "node",
      "id": 228627219,
      "lat": 44.5393085,
      "lon": 9.1296118,
      "tags": {
        "ele": "825",
        "name": "Pentema",
        "place": "hamlet",
        "wikidata": "Q3899265",
        "wikipedia": "it:Pentema"
      }
    },
    {
      "type": "node",
      "id": 229021260,
      "lat": 44.4985631,
      "lon": 9.1030029,
      "tags": {
        "name": "Candini",
        "place": "hamlet"
      }
    },
    {
      "type": "node",
      "id": 229021729,
      "lat": 44.5049554,
      "lon": 9.0897229,
      "tags": {
        "name": "Chiappa",
        "place": "hamlet"
      }
    },
    {
      "type": "node",
      "id": 229032085,
      "lat": 44.4985606,
      "lon": 9.125581,
      "tags": {
        "created_by": "JOSM",
        "name": "Siginella",
        "place": "hamlet"
      }
    },
    {
      "type": "node",
      "id": 229032212,
      "lat": 44.5534005,
      "lon": 9.0947272,
      "tags": {
        "created_by": "JOSM",
        "name": "Mareta",
        "place": "hamlet",
        "wikidata": "Q18458066"
      }
    },
    {
      "type": "node",
      "id": 237195944,
      "lat": 44.4127449,
      "lon": 9.1430648,
      "tags": {
        "created_by": "JOSM",
        "name": "Calcinara",
        "place": "hamlet"
      }
    },
    {
      "type": "node",
      "id": 248432559,
      "lat": 44.5311398,
      "lon": 9.1153382,
      "tags": {
        "created_by": "JOSM",
        "name": "Tinello",
        "place": "hamlet"
      }
    },
    {
      "type": "node",
      "id": 248432560,
      "lat": 44.5275277,
      "lon": 9.1084683,
      "tags": {
        "created_by": "JOSM",
        "name": "Serre di Pentema",
        "place": "hamlet"
      }
    },
    {
      "type": "node",
      "id": 248433261,
      "lat": 44.536078,
      "lon": 9.1208414,
      "tags": {
        "created_by": "JOSM",
        "name": "Pezza",
        "place": "hamlet"
      }
    },
    {
      "type": "node",
      "id": 251802527,
      "lat": 44.3364485,
      "lon": 9.158633,
      "tags": {
        "name": "San Rocco di Camogli",
        "place": "hamlet",
        "wikidata": "Q18459002",
        "wikipedia": "it:San Rocco (Camogli)"
      }
    },
    {
      "type": "node",
      "id": 253070068,
      "lat": 44.3218789,
      "lon": 9.2051469,
      "tags": {
        "name": "Nozarego",
        "place": "hamlet"
      }
    },
    {
      "type": "node",
      "id": 253070440,
      "lat": 44.3115731,
      "lon": 9.208602,
      "tags": {
        "created_by": "Potlatch 0.10b",
        "is_in": "Santa Margherita Ligure",
        "name": "Paraggi",
        "place": "hamlet"
      }
    },
    {
      "type": "node",
      "id": 253105545,
      "lat": 44.3451712,
      "lon": 9.1700698,
      "tags": {
        "is_in": "Camogli",
        "name": "Ruta",
        "place": "suburb",
        "wikidata": "Q3942957",
        "wikipedia": "it:Ruta (Camogli)"
      }
    },
    {
      "type": "node",
      "id": 253127340,
      "lat": 44.3897798,
      "lon": 8.9748382,
      "tags": {
        "name": "Boccadasse",
        "name:lij": "Bocadâze",
        "place": "hamlet",
        "wikidata": "Q3641485",
        "wikipedia": "it:Boccadasse"
      }
    },
    {
      "type": "node",
      "id": 253127409,
      "lat": 44.3910968,
      "lon": 8.9807416,
      "tags": {
        "name": "Vernazzola",
        "place": "hamlet"
      }
    },
    {
      "type": "node",
      "id": 253127590,
      "lat": 44.3837583,
      "lon": 9.0238385,
      "tags": {
        "name": "Murcarolo",
        "place": "neighbourhood"
      }
    },
    {
      "type": "node",
      "id": 253265138,
      "lat": 44.2592474,
      "lon": 9.4266038,
      "tags": {
        "name": "Riva Trigoso",
        "name:ru": "Рива Тригосо",
        "place": "village",
        "wikidata": "Q3937847",
        "wikipedia": "it:Riva Trigoso"
      }
    },
    {
      "type": "node",
      "id": 253509473,
      "lat": 44.3321478,
      "lon": 9.158215,
      "tags": {
        "name": "La Mortola",
        "place": "hamlet"
      }
    },
    {
      "type": "node",
      "id": 253724239,
      "lat": 44.3285625,
      "lon": 9.32189,
      "tags": {
        "name": "Sampierdicanne",
        "place": "suburb"
      }
    },
    {
      "type": "node",
      "id": 253768536,
      "lat": 44.3629122,
      "lon": 9.1300051,
      "tags": {
        "name": "Mulinetti",
        "place": "suburb",
        "wikidata": "Q3866996",
        "wikipedia": "it:Mulinetti"
      }
    },
    {
      "type": "node",
      "id": 253850425,
      "lat": 44.3405803,
      "lon": 9.2240759,
      "tags": {
        "name": "San Michele di Pagana",
        "place": "suburb",
        "wikidata": "Q1989406",
        "wikipedia": "it:San Michele di Pagana"
      }
    },
    {
      "type": "node",
      "id": 254674431,
      "lat": 44.2908658,
      "lon": 9.3779898,
      "tags": {
        "name": "Cavi",
        "place": "suburb",
        "wikidata": "Q2378605",
        "wikipedia": "it:Cavi di Lavagna"
      }
    },
    {
      "type": "node",
      "id": 254997780,
      "lat": 44.6043068,
      "lon": 8.9782999,
      "tags": {
        "created_by": "Potlatch 0.8a",
        "is_in": "Ronco Scrivia",
        "name": "Pietrafraccia",
        "place": "suburb"
      }
    },
    {
      "type": "node",
      "id": 255189159,
      "lat": 44.5958181,
      "lon": 8.9769867,
      "tags": {
        "is_in": "Busalla",
        "name": "Bastia",
        "place": "hamlet"
      }
    },
    {
      "type": "node",
      "id": 256134154,
      "lat": 44.6192074,
      "lon": 8.9578517,
      "tags": {
        "created_by": "Potlatch 0.9c",
        "is_in": "Ronco Scrivia",
        "name": "Cascine",
        "place": "hamlet"
      }
    },
    {
      "type": "node",
      "id": 256138636,
      "lat": 44.4182658,
      "lon": 8.7148122,
      "tags": {
        "name": "Vesima",
        "place": "hamlet"
      }
    },
    {
      "type": "node",
      "id": 256168845,
      "lat": 44.5400527,
      "lon": 9.2085865,
      "tags": {
        "is_in": "Rondanina",
        "name": "Retezzo",
        "place": "hamlet",
        "wikidata": "Q16595991",
        "wikipedia": "it:Retezzo"
      }
    },
    {
      "type": "node",
      "id": 256586329,
      "lat": 44.4017002,
      "lon": 8.9371173,
      "tags": {
        "name": "Carignano",
        "place": "suburb",
        "wikidata": "Q683384"
      }
    },
    {
      "type": "node",
      "id": 256587526,
      "lat": 44.4169913,
      "lon": 8.956335,
      "tags": {
        "name": "Marassi",
        "place": "suburb",
        "wikidata": "Q946486"
      }
    },
    {
      "type": "node",
      "id": 256599237,
      "lat": 44.4079697,
      "lon": 8.9611438,
      "tags": {
        "name": "San Fruttuoso",
        "place": "suburb",
        "wikidata": "Q2219563"
      }
    },
    {
      "type": "node",
      "id": 256599637,
      "lat": 44.4212334,
      "lon": 8.9714694,
      "tags": {
        "name": "Quezzi",
        "place": "suburb",
        "wikidata": "Q2123040"
      }
    },
    {
      "type": "node",
      "id": 256629829,
      "lat": 44.3994326,
      "lon": 8.9489796,
      "tags": {
        "name": "Foce",
        "name:lij": "Foxe",
        "place": "suburb",
        "wikidata": "Q1434980",
        "wikipedia": "it:Foce (quartiere di Genova)"
      }
    },
    {
      "type": "node",
      "id": 256630462,
      "lat": 44.3833121,
      "lon": 9.0391295,
      "tags": {
        "name": "Nervi",
        "place": "suburb",
        "wikidata": "Q963477"
      }
    },
    {
      "type": "node",
      "id": 256630691,
      "lat": 44.38588,
      "lon": 9.0163589,
      "tags": {
        "name": "Quinto al Mare",
        "place": "suburb",
        "wikidata": "Q833262"
      }
    },
    {
      "type": "node",
      "id": 256631218,
      "lat": 44.3981567,
      "lon": 9.0021897,
      "tags": {
        "created_by": "Potlatch 0.8a",
        "name": "Quarto Alta",
        "place": "suburb"
      }
    },
    {
      "type": "node",
      "id": 256631290,
      "lat": 44.3928411,
      "lon": 8.9980192,
      "tags": {
        "name": "Quarto dei Mille",
        "place": "suburb",
        "wikidata": "Q531979"
      }
    },
    {
      "type": "node",
      "id": 256971577,
      "lat": 44.3972232,
      "lon": 8.9635865,
      "tags": {
        "name": "Albaro",
        "name:lij": "Arbâ",
        "place": "suburb",
        "wikidata": "Q833231",
        "wikipedia": "it:Albaro"
      }
    },
    {
      "type": "node",
      "id": 256972466,
      "lat": 44.4080722,
      "lon": 8.9884585,
      "tags": {
        "name": "Borgoratti",
        "place": "suburb",
        "wikidata": "Q893562"
      }
    },
    {
      "type": "node",
      "id": 256981745,
      "lat": 44.4014679,
      "lon": 9.1244016,
      "tags": {
        "is_in": "Sori",
        "name": "Sussisa",
        "place": "hamlet"
      }
    },
    {
      "type": "node",
      "id": 257882857,
      "lat": 44.3893971,
      "lon": 9.1209002,
      "tags": {
        "created_by": "Potlatch 0.8a",
        "is_in": "Sori",
        "name": "Capreno",
        "place": "village"
      }
    },
    {
      "type": "node",
      "id": 257934094,
      "lat": 44.3991806,
      "lon": 8.9785847,
      "tags": {
        "name": "Sturla",
        "place": "suburb",
        "wikidata": "Q1422315"
      }
    },
    {
      "type": "node",
      "id": 258337063,
      "lat": 44.4126885,
      "lon": 8.8929306,
      "tags": {
        "name": "Sampierdarena",
        "old_name": "San Pier d'Arena",
        "place": "suburb",
        "wikidata": "Q1930172"
      }
    },
    {
      "type": "node",
      "id": 258337134,
      "lat": 44.4161302,
      "lon": 8.871799,
      "tags": {
        "name": "Cornigliano",
        "place": "suburb",
        "wikidata": "Q834930",
        "wikipedia": "it:Cornigliano"
      }
    },
    {
      "type": "node",
      "id": 259847025,
      "lat": 44.5597515,
      "lon": 9.014304,
      "tags": {
        "name": "Sorrivi",
        "place": "hamlet"
      }
    },
    {
      "type": "node",
      "id": 260129078,
      "lat": 44.5141338,
      "lon": 9.0915549,
      "tags": {
        "name": "Castiglione Inferiore",
        "place": "hamlet"
      }
    },
    {
      "type": "node",
      "id": 268600942,
      "lat": 44.3848902,
      "lon": 9.050996,
      "tags": {
        "name": "Sant'Ilario",
        "place": "suburb",
        "wikidata": "Q2223893",
        "wikipedia": "it:Sant'Ilario (quartiere di Genova)"
      }
    },
    {
      "type": "node",
      "id": 271876983,
      "lat": 44.5510153,
      "lon": 9.0021663,
      "tags": {
        "name": "Montemaggio",
        "place": "hamlet"
      }
    },
    {
      "type": "node",
      "id": 271876986,
      "lat": 44.5542423,
      "lon": 8.9937727,
      "tags": {
        "created_by": "Potlatch 0.9c",
        "name": "Renesso",
        "place": "hamlet",
        "wikidata": "Q18458808"
      }
    },
    {
      "type": "node",
      "id": 272400548,
      "lat": 44.5663475,
      "lon": 8.9617364,
      "tags": {
        "created_by": "Potlatch 0.9c",
        "name": "Isorelle",
        "place": "hamlet"
      }
    },
    {
      "type": "node",
      "id": 274618912,
      "lat": 44.1199606,
      "lon": 9.7086874,
      "tags": {
        "is_in": "La Spezia, Liguria",
        "name": "Corniglia",
        "name:ru": "Корнилья",
        "place": "village",
        "wikidata": "Q508135",
        "wikipedia": "it:Corniglia"
      }
    },
    {
      "type": "node",
      "id": 274849129,
      "lat": 44.5348818,
      "lon": 9.1755546,
      "tags": {
        "is_in": "Torriglia",
        "name": "Garaventa",
        "place": "hamlet"
      }
    },
    {
      "type": "node",
      "id": 274849131,
      "lat": 44.547269,
      "lon": 9.1764665,
      "tags": {
        "is_in": "Torriglia",
        "name": "Bavastri",
        "place": "hamlet"
      }
    },
    {
      "type": "node",
      "id": 274849133,
      "lat": 44.5588665,
      "lon": 9.1775786,
      "tags": {
        "is_in": "Propata, Genova, Liguria, Italia",
        "name": "Bavastrelli",
        "place": "hamlet",
        "wikidata": "Q3637043",
        "wikipedia": "it:Bavastrelli"
      }
    },
    {
      "type": "node",
      "id": 274956291,
      "lat": 44.4980223,
      "lon": 8.9121021,
      "tags": {
        "name": "San Cipriano",
        "place": "village",
        "wikidata": "Q3946885",
        "wikipedia": "it:San Cipriano (Serra Riccò)"
      }
    },
    {
      "type": "node",
      "id": 274957217,
      "lat": 44.5299539,
      "lon": 9.1595453,
      "tags": {
        "is_in": "Torriglia",
        "name": "Donetta",
        "place": "hamlet"
      }
    },
    {
      "type": "node",
      "id": 274980670,
      "lat": 44.5430093,
      "lon": 9.1456033,
      "tags": {
        "created_by": "Potlatch 0.9c",
        "is_in": "Pentema, Genova, Liguria, Italia",
        "name": "Buoni di Pentema",
        "place": "hamlet"
      }
    },
    {
      "type": "node",
      "id": 275318723,
      "lat": 44.4508037,
      "lon": 9.0341011,
      "tags": {
        "created_by": "Potlatch 0.10b",
        "is_in": "Davagna",
        "name": "Cavassolo",
        "place": "hamlet"
      }
    },
    {
      "type": "node",
      "id": 275319347,
      "lat": 44.4420898,
      "lon": 9.0642765,
      "tags": {
        "name": "Trapena",
        "place": "hamlet"
      }
    },
    {
      "type": "node",
      "id": 275319978,
      "lat": 44.4686541,
      "lon": 9.1160562,
      "tags": {
        "name": "Sottocolle",
        "place": "hamlet"
      }
    },
    {
      "type": "node",
      "id": 275321435,
      "lat": 44.4610349,
      "lon": 9.0770679,
      "tags": {
        "name": "Sottana",
        "place": "hamlet"
      }
    },
    {
      "type": "node",
      "id": 275539898,
      "lat": 44.4586793,
      "lon": 8.9014681,
      "tags": {
        "alt_name:lij": "Bösanæo",
        "name": "Bolzaneto",
        "name:lij": "Borsanæo",
        "place": "suburb",
        "wikidata": "Q261570",
        "wikipedia": "it:Bolzaneto"
      }
    },
    {
      "type": "node",
      "id": 275540056,
      "lat": 44.437982,
      "lon": 8.8929743,
      "tags": {
        "alt_name:lij": "Roieu",
        "name": "Rivarolo",
        "name:lij": "Rieu",
        "place": "suburb",
        "wikidata": "Q745392",
        "wikipedia": "it:Rivarolo (Genova)"
      }
    },
    {
      "type": "node",
      "id": 275540193,
      "lat": 44.4978085,
      "lon": 8.9035055,
      "tags": {
        "name": "Pontedecimo",
        "name:lij": "Pontedêximo",
        "place": "suburb",
        "wikidata": "Q1057202",
        "wikipedia": "it:Pontedecimo"
      }
    },
    {
      "type": "node",
      "id": 275630211,
      "lat": 44.5432278,
      "lon": 9.2603079,
      "tags": {
        "created_by": "Potlatch 0.9c",
        "name": "Due Ponti",
        "place": "hamlet"
      }
    },
    {
      "type": "node",
      "id": 276263409,
      "lat": 44.5718883,
      "lon": 9.1826049,
      "tags": {
        "created_by": "Potlatch 0.9c",
        "is_in": "Propata, Genova, Liguria, Italia",
        "name": "Caprile",
        "place": "hamlet"
      }
    },
    {
      "type": "node",
      "id": 276604780,
      "lat": 44.5868116,
      "lon": 8.9919791,
      "tags": {
        "is_in": "Crocefieschi",
        "name": "Camarza",
        "place": "hamlet",
        "wikidata": "Q3651142",
        "wikipedia": "it:Camarza"
      }
    },
    {
      "type": "node",
      "id": 276615157,
      "lat": 44.5803208,
      "lon": 9.0790608,
      "tags": {
        "is_in": "Gorreto",
        "name": "Alpe",
        "place": "hamlet",
        "wikidata": "Q16487866",
        "wikipedia": "it:Alpe (Vobbia)"
      }
    },
    {
      "type": "node",
      "id": 276617628,
      "lat": 44.5911097,
      "lon": 8.9375618,
      "tags": {
        "name": "Borgo Fornari",
        "place": "hamlet",
        "wikidata": "Q3642493",
        "wikipedia": "it:Borgo Fornari"
      }
    },
    {
      "type": "node",
      "id": 276618118,
      "lat": 44.5658837,
      "lon": 9.0635063,
      "tags": {
        "created_by": "Potlatch 0.9c",
        "is_in": "Valbrevenna, Genova, Liguria, Italia",
        "name": "Clavarezza",
        "place": "hamlet"
      }
    },
    {
      "type": "node",
      "id": 276627985,
      "lat": 44.564796,
      "lon": 9.0803731,
      "tags": {
        "ele": "920",
        "is_in": "Valbrevenna, Genova, Liguria, Italia",
        "name": "Porcile",
        "place": "hamlet"
      }
    },
    {
      "type": "node",
      "id": 276628440,
      "lat": 44.5721389,
      "lon": 9.1166862,
      "tags": {
        "created_by": "Potlatch 0.9c",
        "is_in": "Valbrevenna",
        "name": "Tonno",
        "place": "hamlet"
      }
    },
    {
      "type": "node",
      "id": 276628441,
      "lat": 44.5687147,
      "lon": 9.1156562,
      "tags": {
        "created_by": "Potlatch 0.9c",
        "is_in": "Valbrevenna",
        "name": "Casareggio",
        "place": "hamlet"
      }
    },
    {
      "type": "node",
      "id": 276628564,
      "lat": 44.5609671,
      "lon": 9.1185667,
      "tags": {
        "created_by": "Potlatch 0.9c",
        "is_in": "Valbrevenna, Genova, Liguria, Italia",
        "name": "Chiappa",
        "place": "hamlet"
      }
    },
    {
      "type": "node",
      "id": 276628633,
      "lat": 44.5565943,
      "lon": 9.1190216,
      "tags": {
        "created_by": "Potlatch 0.9c",
        "is_in": "Valbrevenna, Genova, Liguria, Italia",
        "name": "Senarega",
        "place": "hamlet"
      }
    },
    {
      "type": "node",
      "id": 276628710,
      "lat": 44.5471261,
      "lon": 9.1005508,
      "tags": {
        "created_by": "Potlatch 0.9c",
        "is_in": "Valbrevenna, Genova, Liguria, Italia",
        "name": "Carsi",
        "place": "hamlet"
      }
    },
    {
      "type": "node",
      "id": 276628798,
      "lat": 44.5659174,
      "lon": 9.0931908,
      "tags": {
        "is_in": "Valbrevenna, Genova, Liguria, Italia",
        "name": "Pareto",
        "place": "hamlet"
      }
    },
    {
      "type": "node",
      "id": 276630091,
      "lat": 44.5537932,
      "lon": 9.1414234,
      "tags": {
        "created_by": "Potlatch 0.9c",
        "is_in": "Valbrevenna, Genova, Liguria, Italia",
        "name": "Piancassina",
        "place": "hamlet",
        "wikidata": "Q18458559"
      }
    },
    {
      "type": "node",
      "id": 276631384,
      "lat": 44.552998,
      "lon": 9.1463922,
      "tags": {
        "name": "Lavazzuoli",
        "place": "hamlet"
      }
    },
    {
      "type": "node",
      "id": 276635742,
      "lat": 44.5445875,
      "lon": 9.03253,
      "tags": {
        "created_by": "Potlatch 0.9c",
        "is_in": "Valbrevenna, Genova, Liguria, Italia",
        "name": "Ternano",
        "place": "hamlet"
      }
    },
    {
      "type": "node",
      "id": 276635825,
      "lat": 44.5444652,
      "lon": 9.0473358,
      "tags": {
        "created_by": "Potlatch 0.9c",
        "is_in": "Valbrevenna, Genova, Liguria, Italia",
        "name": "Frassineto",
        "place": "hamlet"
      }
    },
    {
      "type": "node",
      "id": 276635891,
      "lat": 44.5486676,
      "lon": 9.0534469,
      "tags": {
        "created_by": "Potlatch 0.9c",
        "is_in": "Valbrevenna, Genova, Liguria, Italia",
        "name": "Frassinello",
        "place": "hamlet"
      }
    },
    {
      "type": "node",
      "id": 276636647,
      "lat": 44.5452919,
      "lon": 9.0757762,
      "tags": {
        "name": "Crosi",
        "place": "hamlet"
      }
    },
    {
      "type": "node",
      "id": 276636840,
      "lat": 44.5431377,
      "lon": 9.0661928,
      "tags": {
        "alt_name": "Piani di Frassinello",
        "is_in": "Valbrevenna, Genova, Liguria, Italia",
        "name": "Piani",
        "place": "hamlet"
      }
    },
    {
      "type": "node",
      "id": 276637861,
      "lat": 44.5513191,
      "lon": 9.1103413,
      "tags": {
        "created_by": "Potlatch 0.9c",
        "is_in": "Valbrevenna, Genova, Liguria, Italia",
        "name": "Cerviasca",
        "place": "hamlet"
      }
    },
    {
      "type": "node",
      "id": 276638124,
      "lat": 44.5455356,
      "lon": 9.0952543,
      "tags": {
        "name": "Gherfo",
        "place": "hamlet"
      }
    },
    {
      "type": "node",
      "id": 276642785,
      "lat": 44.5530512,
      "lon": 9.193153,
      "tags": {
        "is_in": "Propata",
        "name": "Caffarena",
        "place": "hamlet"
      }
    },
    {
      "type": "node",
      "id": 277000338,
      "lat": 44.4616688,
      "lon": 8.8894923,
      "tags": {
        "name": "Murta",
        "name:lij": "Mörta",
        "place": "suburb",
        "wikidata": "Q3867449",
        "wikipedia": "it:Murta"
      }
    },
    {
      "type": "node",
      "id": 277564578,
      "lat": 44.3825293,
      "lon": 9.0789247,
      "tags": {
        "is_in": "Bogliasco",
        "name": "San Bernardo",
        "place": "hamlet",
        "wikidata": "Q2151395",
        "wikipedia": "it:Poggio Favaro-San Bernardo"
      }
    },
    {
      "type": "node",
      "id": 282270035,
      "lat": 44.3347367,
      "lon": 9.5900392,
      "tags": {
        "name": "San Pietro Vara",
        "place": "village"
      }
    },
    {
      "type": "node",
      "id": 285037843,
      "lat": 44.4595441,
      "lon": 8.9537506,
      "tags": {
        "is_in": "Sant'Olcese",
        "name": "Trensasco",
        "place": "hamlet",
        "wikidata": "Q3998293",
        "wikipedia": "it:Trensasco"
      }
    },
    {
      "type": "node",
      "id": 286640597,
      "lat": 44.3426042,
      "lon": 9.3511635,
      "tags": {
        "name": "Rivarola",
        "place": "village",
        "population": "768"
      }
    },
    {
      "type": "node",
      "id": 286640599,
      "lat": 44.3594198,
      "lon": 9.350566,
      "tags": {
        "name": "Santa Maria di Sturla",
        "place": "hamlet"
      }
    },
    {
      "type": "node",
      "id": 286640600,
      "lat": 44.3653795,
      "lon": 9.3572604,
      "tags": {
        "name": "Terrarossa",
        "place": "hamlet"
      }
    },
    {
      "type": "node",
      "id": 286640601,
      "lat": 44.3901716,
      "lon": 9.3785251,
      "tags": {
        "name": "Prati",
        "place": "hamlet"
      }
    },
    {
      "type": "node",
      "id": 286640603,
      "lat": 44.4119998,
      "lon": 9.3892062,
      "tags": {
        "name": "Filanda",
        "place": "hamlet"
      }
    },
    {
      "type": "node",
      "id": 286640605,
      "lat": 44.419483,
      "lon": 9.3889971,
      "tags": {
        "is_in": "Borzonasca",
        "name": "Pianazzo",
        "place": "hamlet"
      }
    },
    {
      "type": "node",
      "id": 286640606,
      "lat": 44.4381771,
      "lon": 9.3673903,
      "tags": {
        "name": "Brizzolara",
        "place": "hamlet"
      }
    },
    {
      "type": "node",
      "id": 286640607,
      "lat": 44.4518274,
      "lon": 9.360223,
      "tags": {
        "ele": "450",
        "name": "Malanotte",
        "place": "hamlet"
      }
    },
    {
      "type": "node",
      "id": 286640608,
      "lat": 44.4545954,
      "lon": 9.3627841,
      "tags": {
        "name": "Campori",
        "place": "hamlet"
      }
    },
    {
      "type": "node",
      "id": 286640609,
      "lat": 44.4656285,
      "lon": 9.3665998,
      "tags": {
        "name": "Bertigaro",
        "place": "hamlet",
        "wikidata": "Q3638912",
        "wikipedia": "it:Bertigaro"
      }
    },
    {
      "type": "node",
      "id": 286696605,
      "lat": 44.4813496,
      "lon": 9.242054,
      "tags": {
        "is_in": "Lorsica",
        "name": "Barbagelata",
        "place": "hamlet"
      }
    },
    {
      "type": "node",
      "id": 286702612,
      "lat": 44.4810806,
      "lon": 9.1194737,
      "tags": {
        "ele": "674",
        "name": "Scoffera",
        "place": "hamlet"
      }
    },
    {
      "type": "node",
      "id": 286704077,
      "lat": 44.4689143,
      "lon": 9.1246983,
      "tags": {
        "name": "Boasi",
        "place": "hamlet"
      }
    },
    {
      "type": "node",
      "id": 286712931,
      "lat": 44.4780253,
      "lon": 9.1027578,
      "tags": {
        "name": "Moranego",
        "place": "hamlet"
      }
    },
    {
      "type": "node",
      "id": 287635902,
      "lat": 44.472886,
      "lon": 9.0099672,
      "tags": {
        "name": "Creto",
        "place": "hamlet"
      }
    },
    {
      "type": "node",
      "id": 287637166,
      "lat": 44.4614204,
      "lon": 9.06929,
      "tags": {
        "name": "Capenardo",
        "place": "hamlet"
      }
    },
    {
      "type": "node",
      "id": 287644147,
      "lat": 44.3709718,
      "lon": 9.1164152,
      "tags": {
        "name": "Sant'Apollinare",
        "place": "hamlet"
      }
    },
    {
      "type": "node",
      "id": 287647218,
      "lat": 44.3602446,
      "lon": 9.1773938,
      "tags": {
        "created_by": "Potlatch 0.10b",
        "is_in": "Rapallo",
        "name": "San Martino di Noceto",
        "place": "hamlet"
      }
    },
    {
      "type": "node",
      "id": 287649640,
      "lat": 44.378644,
      "lon": 9.1588599,
      "tags": {
        "name": "Collodari",
        "place": "hamlet"
      }
    },
    {
      "type": "node",
      "id": 287944962,
      "lat": 44.5425532,
      "lon": 8.8675848,
      "tags": {
        "created_by": "Potlatch 0.10b",
        "is_in": "Campomorone",
        "name": "Cravasco",
        "place": "hamlet"
      }
    },
    {
      "type": "node",
      "id": 288004098,
      "lat": 44.5179948,
      "lon": 8.9804742,
      "tags": {
        "created_by": "Potlatch 0.10b",
        "name": "Orero",
        "place": "village"
      }
    },
    {
      "type": "node",
      "id": 288004199,
      "lat": 44.5205489,
      "lon": 8.9887166,
      "tags": {
        "is_in": "Orero",
        "name": "Crocetta d'Orero",
        "place": "hamlet"
      }
    },
    {
      "type": "node",
      "id": 288004235,
      "lat": 44.5238468,
      "lon": 8.9883653,
      "tags": {
        "is_in": "Orero",
        "name": "Cortino",
        "place": "hamlet"
      }
    },
    {
      "type": "node",
      "id": 288004320,
      "lat": 44.5169354,
      "lon": 8.9749126,
      "tags": {
        "is_in": "Orero",
        "name": "Costa Fontana",
        "place": "hamlet"
      }
    },
    {
      "type": "node",
      "id": 288086285,
      "lat": 44.5393782,
      "lon": 8.9029384,
      "tags": {
        "name": "Paveto",
        "place": "hamlet",
        "population": "177"
      }
    },
    {
      "type": "node",
      "id": 288086769,
      "lat": 44.5417601,
      "lon": 8.981737,
      "tags": {
        "name": "Besolagno",
        "place": "hamlet"
      }
    },
    {
      "type": "node",
      "id": 290086620,
      "lat": 44.3389493,
      "lon": 9.186013,
      "tags": {
        "is_in": "Santa Margherita Ligure",
        "name": "San Lorenzo della Costa",
        "place": "hamlet",
        "wikidata": "Q1991839",
        "wikipedia": "it:San Lorenzo della Costa"
      }
    },
    {
      "type": "node",
      "id": 290416234,
      "lat": 44.2471013,
      "lon": 9.6235117,
      "tags": {
        "name": "Mattarana",
        "place": "village",
        "population": "202"
      }
    },
    {
      "type": "node",
      "id": 290590223,
      "lat": 44.1938108,
      "lon": 9.8522539,
      "tags": {
        "name": "Piana Battolla",
        "place": "village",
        "population": "1269"
      }
    },
    {
      "type": "node",
      "id": 290890181,
      "lat": 44.4271613,
      "lon": 8.8149219,
      "tags": {
        "name": "Pegli",
        "name:lij": "Pegi",
        "place": "suburb",
        "wikidata": "Q833271"
      }
    },
    {
      "type": "node",
      "id": 290890435,
      "lat": 44.4282182,
      "lon": 8.7831967,
      "tags": {
        "name": "Pra'",
        "place": "suburb",
        "wikidata": "Q3401166"
      }
    },
    {
      "type": "node",
      "id": 290890524,
      "lat": 44.4285842,
      "lon": 8.7542329,
      "tags": {
        "name": "Voltri",
        "name:lij": "Utri",
        "place": "suburb",
        "population": "13096",
        "wikidata": "Q1516072",
        "wikipedia": "it:Voltri"
      }
    },
    {
      "type": "node",
      "id": 290890738,
      "lat": 44.4343943,
      "lon": 8.8674748,
      "tags": {
        "name": "Borzoli",
        "place": "suburb",
        "wikidata": "Q3642831"
      }
    },
    {
      "type": "node",
      "id": 290891177,
      "lat": 44.4249254,
      "lon": 8.8499031,
      "tags": {
        "name": "Sestri Ponente",
        "place": "suburb",
        "postal_code": "16154",
        "wikidata": "Q833878"
      }
    },
    {
      "type": "node",
      "id": 290893016,
      "lat": 44.4266238,
      "lon": 8.9099896,
      "tags": {
        "name": "Granarolo",
        "place": "suburb",
        "wikidata": "Q3774994"
      }
    },